city,name,monday,tuesday,wednesday,thursday,friday,saturday,sunday,stars,state,address,is_open,latitude,longitude,wifi,drivethru,restaurantsdelivery,businessacceptscreditcards,restaurantsgoodforgroups,business_id,postal_code,review_count
Ashland City,Sonic Drive-In,0:0-0:0,6:0-22:0,6:0-22:0,6:0-22:0,9:0-0:0,9:0-22:0,8:0-22:0,2,TN,615 S Main St,1,36.269593,-87.058943,u'no',True,True,True,True,CF33F8-E6oudUQ46HnavjQ,37015,6
Nashville,Sonic Drive-In,0:0-0:0,6:0-21:0,6:0-21:0,6:0-16:0,6:0-16:0,6:0-17:0,6:0-21:0,1.5,TN,2312 Dickerson Pike,1,36.2081024,-86.7681696,u'no',True,True,True,False,bBDDEgkFA1Otx9Lfe7BZUQ,37207,10
Reno,Silver and Blue Outfitters,0:0-0:0,10:0-21:0,10:0-21:0,10:0-21:0,10:0-21:0,10:0-21:0,11:0-18:0,4.5,NV,5191 Meadowood Mall Cir,1,39.476518,-119.7840369,u'no',NA,NA,True,NA,knQ4vIgx-r85kjlWVVjcpQ,89502,5
Brentwood,Subway,9:0-22:0,9:0-22:0,9:0-22:0,9:0-22:0,9:0-20:0,9:0-22:0,10:0-22:0,2.5,TN,"330 Franklin Rd, Ste 900-d",1,36.0263631408,-86.7894728157,NA,False,True,True,True,VZzivJEbmHItOxNXJB3SpA,37027,14
Largo,Chipotle Mexican Grill,0:0-0:0,10:45-22:0,10:45-22:0,10:45-22:0,10:45-22:0,10:45-22:0,10:45-22:0,3,FL,10160 Ulmerton Rd,1,27.894167,-82.779866,'free',True,True,True,False,aNtKyc2rr-uK5cqzY9TVQQ,33771,19
Nashville,Wendy's,10:0-0:0,10:0-0:0,10:0-0:0,10:0-0:0,10:0-1:0,10:0-1:0,10:0-0:0,1.5,TN,741 Thompson Ln,1,36.112075744,-86.7674462724,NA,NA,True,True,True,G4lRmwDHdvhZAhmtlsYYBw,37204,37
Tampa,PDQ Temple Terrace,11:0-21:0,11:0-21:0,11:0-21:0,11:0-21:0,11:0-21:0,11:0-21:0,11:0-21:0,3,FL,5112 E Fowler Ave,1,28.0548882706,-82.3995484,NA,NA,True,True,NA,QjV4v7q_pt7tt3K1US7IHg,33617,5
St. Louis,McDonald's,0:0-0:0,0:0-0:0,0:0-0:0,0:0-0:0,0:0-0:0,0:0-0:0,0:0-0:0,1.5,MO,1919 S Jefferson,1,38.6124951839,-90.2219420671,'free',True,True,True,True,yM8LlTInbQH4FwWC97lz6w,63104,100
Lutz,Aussie Grill,0:0-0:0,11:0-21:0,11:0-21:0,11:0-21:0,11:0-21:0,11:0-22:0,11:0-21:0,4,FL,25340 Sierra Center Blvd,1,28.192191035,-82.396367,NA,NA,True,True,NA,CtMEJxpVMlNzFpB4PtFjfA,33559,75
Philadelphia,Wendy's,10:0-2:0,10:0-2:0,10:0-2:0,10:0-2:0,10:0-2:0,10:0-2:0,10:0-2:0,1.5,PA,700 E. Hunting Park,1,40.012141,-75.1150148,NA,NA,True,True,True,O1oZpbZNDMH_gz8DhsZCdA,19124,15
Brandon,Brandon Burgers,10:30-22:0,10:30-22:0,10:30-22:0,10:30-22:0,10:30-22:0,10:30-22:0,10:30-22:0,3.5,FL,1513 W Brandon Blvd,1,27.9373704213,-82.3077001423,NA,NA,True,True,NA,SRexiuEsx1d9-dZVUsssQA,33511,24
Lansdale,McDonald's,6:0-23:0,6:0-23:0,6:0-23:0,6:0-23:0,6:0-0:0,6:0-0:0,6:0-23:0,1.5,PA,2333 Welsh Rd,1,40.2637063378,-75.3179157563,u'free',True,True,NA,NA,aNXw3PkXVt8ANwLyCfcmpg,19446,17
New Orleans,Blaze Pizza,0:0-0:0,11:0-22:0,12:0-22:0,11:0-22:0,11:0-22:0,11:0-22:0,11:0-22:0,4,LA,611 O'keefe Ave,1,29.948395,-90.075281,u'free',False,True,True,True,bSJczuohHVko33UT82hnfA,70113,302
Philadelphia,Crown Fried Chicken,NA,NA,NA,NA,NA,NA,NA,2.5,PA,1128 S Broad St,1,39.9368911,-75.1672837,u'no',NA,True,True,False,GVqXNt0HKJLpciN9ePxnWw,19146,16
Pennsville,McDonald's,0:0-0:0,0:0-0:0,0:0-0:0,0:0-0:0,0:0-0:0,0:0-0:0,0:0-0:0,2,NJ,417 N Broadway,1,39.6773020944,-75.4953995347,'free',True,True,True,True,gb7JjRJtzWDsIWpJihZhBQ,08070,20
Hazelwood,Johnny Rockets,11:0-21:0,11:0-21:0,11:0-21:0,11:0-21:0,12:0-21:0,12:0-21:0,12:0-18:0,2,MO,5555 St. Louis Mills Blvd,0,38.7860901654,-90.4157752544,NA,NA,NA,NA,NA,Dl1alpHSJE4_iB0MGKRLXw,63042,6
Langhorne,Pizza Hut,10:30-23:0,10:30-23:0,10:30-23:0,10:30-23:0,10:30-0:0,10:30-0:0,10:30-23:0,1.5,PA,"16 Summit Sq, Store 2B, Route 413 & Doublewoods Road",0,40.21786,-74.9266344309,'no',NA,True,True,False,RsTF2skxLcp6qo9FdnA5PA,19047,18
Brookhaven,Freddy's Frozen Custard & Steakburgers,0:0-0:0,10:30-22:0,10:30-22:0,10:30-22:0,10:30-23:0,10:30-23:0,10:30-22:0,3.5,PA,5051 Edgmont Ave,1,39.879183,-75.396768,NA,True,True,NA,NA,QZLOM3T6xl7y1Q6zqoqHWg,19015,26
St. Louis,McDonald's,0:0-0:0,0:0-0:0,0:0-0:0,0:0-0:0,0:0-0:0,0:0-0:0,0:0-0:0,1.5,MO,1119 N Tucker,1,38.6369079537,-90.1954829934,'free',True,True,True,True,9qxMhGWjGsuPUoQB3Y74Wg,63101,62
Philadelphia,Chick-fil-A,0:0-0:0,10:30-18:0,6:30-22:0,6:30-22:0,6:30-22:0,6:30-20:0,NA,4,PA,9711 Roosevelt Blvd,1,40.08178,-75.0267907,u'free',True,True,True,True,TGfPJHImEq6AQL9a1laxlg,19114,80
Philadelphia,Checkers,10:0-4:0,10:0-4:0,10:0-4:0,10:0-5:0,10:0-6:0,10:0-6:0,10:0-4:0,2,PA,1208 N. Broad,1,39.9719414,-75.159771,u'no',True,True,True,True,CPgWuWGZ4v2sZr5_-1kluw,19121,21
Philadelphia,KFC,10:30-23:0,10:30-23:0,10:30-23:0,10:30-23:0,10:30-0:0,10:30-0:0,10:30-22:0,2,PA,716 Adams Ave,1,40.031578,-75.104787,'free',True,True,True,False,yFqq66GxRjnhZXPgjA6hnw,19124,7
Brandon,McDonald's,0:0-0:0,0:0-0:0,0:0-0:0,0:0-0:0,0:0-0:0,0:0-0:0,0:0-0:0,2,FL,11110 Causeway Blvd,1,27.925332,-82.325395,NA,True,True,True,True,A1lAqN3SOaBLoo6NqVcy4Q,33511,6
Philadelphia,McDonald's,5:30-0:0,5:30-0:0,5:30-0:0,5:30-0:0,5:30-1:0,5:30-1:0,7:0-23:0,1.5,PA,501 Franklin Mill Cir,1,40.0884161,-74.9650112,NA,True,True,True,True,kLSEk3qXY1KdtFjxHJ9pww,19154,20
Jennings,White Castle,0:0-0:0,0:0-0:0,0:0-0:0,0:0-0:0,0:0-0:0,0:0-0:0,0:0-0:0,2,MO,5231 Jennings Station Rd,1,38.7061191433,-90.2701565031,NA,NA,True,NA,NA,aSJdDcspNCf-2oNF2E6SJQ,63136,6
Voorhees,Jersey Mike's Subs,0:0-0:0,10:0-18:0,10:0-21:0,10:0-18:0,10:0-18:0,10:0-21:0,10:0-21:0,4,NJ,910 Haddonfield-Berlin Rd,1,39.848349,-74.97713,'free',False,True,True,False,KsDY9IYqvumohkp74w5i6A,08043,21
Tampa,Hardee's,5:0-21:0,5:0-21:0,5:0-21:0,5:0-21:0,5:0-22:0,5:0-22:0,6:0-21:0,2.5,FL,4116 W Hillsborough Ave,0,27.9955205,-82.512474,'no',NA,False,True,True,_-SSObHzljeA11HAF0lIrQ,33614,27
Fishers,McDonald's,5:0-0:0,5:0-0:0,5:0-0:0,5:0-0:0,5:0-0:0,5:0-0:0,5:0-0:0,2,IN,8907 E 116th St,1,39.9575816,-86.0106627,u'free',True,True,True,True,wcpL6sD6jKsBO0tbdK2KEA,46038,34
Ambler,Candida's Pizza,11:0-22:0,11:0-22:0,11:0-22:0,11:0-22:0,11:0-23:0,11:0-23:0,12:0-22:0,2.5,PA,35 E Butler Ave,0,40.154294,-75.2229125,u'free',NA,True,True,True,ZfWVso8VlT0VN14rxVHccQ,19002,22
Sparks,Del Taco,8:0-23:0,8:0-23:0,8:0-23:0,8:0-23:0,8:0-12:0,8:0-12:0,8:0-23:0,1.5,NV,252 Los Altos Pkwy,1,39.5836527,-119.740935,'no',True,True,True,True,YhQAQhG1IkXJH7oLZMbM9w,89431,60
New Orleans,Taco Del Mar,7:0-16:0,7:0-16:0,7:0-16:0,7:0-16:0,7:0-16:0,NA,NA,2,LA,"1515-Poydras St, Ste 160",1,29.9522480802,-90.0782639989,NA,NA,True,True,True,du_yelFmWOZDEyIAE-jdsQ,70112,9
Goleta,Pieology Pizzeria,0:0-0:0,10:0-20:0,10:0-20:0,10:0-20:0,10:0-22:0,10:0-22:0,10:0-20:0,3.5,CA,"7000 Hollister Ave, Ste F",0,34.4304533,-119.8723449,u'no',NA,True,True,True,vLT1KtrA9bWvjFOg-0xVIg,93117,131
Creve Coeur,Noodles & Company,10:30-21:0,10:30-21:0,10:30-21:0,10:30-21:0,10:30-22:0,10:30-22:0,10:30-21:0,3.5,MO,10925 Olive Blvd,1,38.6735532,-90.4204985,'free',NA,True,True,True,8P7YOM9ThhTvLqXfSWRcRA,63141,65
Sherwood Park,Five Guys,0:0-0:0,11:0-22:0,11:0-22:0,11:0-22:0,11:0-16:0,11:0-22:0,11:0-19:0,4,AB,"993 Fir Street, Unit 60",1,53.5126210396,-113.3219998596,u'no',False,True,NA,True,Nolwnmtnt5QeDGlS0bsCGQ,T8A 4N5,37
Boise,Quiznos,NA,NA,NA,NA,NA,NA,NA,3.5,ID,8665 W Franklin Rd,0,43.6048735,-116.2900126,u'free',NA,False,True,True,25ZRypSbZUHrPe6PFYQ2sw,83709,5
Tucson,Chick-fil-A,0:0-0:0,10:0-17:0,10:0-17:0,10:0-17:0,6:30-22:0,6:30-22:0,NA,3,AZ,"1303 E University Blvd, Ste 149",1,32.2324455,-110.9516985,u'free',True,False,True,NA,2vAqYNN86VWXZiy2E96-TQ,85719,13
Wayne,Subway,NA,NA,NA,NA,NA,NA,NA,1.5,PA,383 W Lancaster Ave,0,40.0442635,-75.3993543,NA,NA,NA,NA,NA,vuL3QCjFZ7lU5LMdUAmZ9Q,19087,5
Nashville,Popeyes Louisiana Kitchen,NA,NA,NA,NA,NA,NA,NA,1,TN,443 Opry Mills Dr,1,36.202427,-86.692898,NA,NA,None,NA,NA,g7GCbnZC_HKO0ybNt7NXBw,37214,6
Tucson,Wendy's,10:0-23:0,10:0-23:0,10:0-23:0,10:0-23:0,10:0-0:0,10:0-0:0,10:0-23:0,2.5,AZ,3535 E. Irvington Road,1,32.1637404,-110.9167218,u'no',NA,True,True,True,iNMdSi5bmvGSGeRQiUW4dw,85714,14
Edmonton,BarBurrito - South Edmonton,NA,NA,NA,NA,NA,NA,NA,3.5,AB,2213 98th St NW,1,53.4531516,-113.48298,NA,NA,True,NA,NA,Ojd913yxClnEwQSthSd8XQ,T6N 1K7,8
Tampa,Taco Bell,7:0-2:0,7:0-2:0,7:0-2:0,7:0-2:0,7:0-3:0,7:0-3:0,7:0-2:0,2.5,FL,4647 West Kennedy Blvd,1,27.944918,-82.523213,'no',True,True,True,True,H2nFgEFitRk7ltE8IRH0xA,33609,42
Tucson,Jack in the Box,0:0-0:0,0:0-0:0,0:0-0:0,0:0-0:0,0:0-0:0,0:0-0:0,0:0-0:0,2,AZ,1202 W St Marys Rd,1,32.2298503,-110.9900599,NA,True,False,True,True,wgcSbX3osqRibWW7pVyfww,85745,13
Tucson,Taco Bell,7:0-2:0,7:0-2:0,7:0-2:0,7:0-2:0,7:0-2:0,7:0-2:0,7:0-2:0,2.5,AZ,8578 East Broadway Blvd,1,32.220539,-110.809269,u'free',True,True,True,True,i8UZblHPk2O-iNKJrnWQ_Q,85710,26
Meridian,Jon Smith Subs,0:0-0:0,10:30-20:0,10:30-20:0,10:30-20:0,11:0-16:0,11:0-16:0,11:0-16:0,3.5,ID,"150 STen Mile Rd, Ste 140",1,43.6033767164,-116.4330922049,NA,False,True,True,NA,2quqM0ajKfTC_DV8sLAvxQ,83642,39
Tucson,Whataburger,0:0-0:0,0:0-0:0,0:0-0:0,0:0-0:0,0:0-18:0,0:0-0:0,6:0-0:0,2.5,AZ,1430 W River Rd,1,32.2979232056,-110.9969272166,'no',True,True,True,True,IXv-g1iK3Hwsnxp0vT8OgA,85704,71
Media,Spasso Italian Grill,11:30-22:0,11:30-22:0,11:30-22:0,11:30-22:0,11:30-23:0,15:0-23:0,10:0-21:0,3.5,PA,1 W State St,1,39.9182380676,-75.3896167572,u'no',False,True,True,True,QkyEr9j7il9lJqseTbPe5w,19063,192
St Albert,A&W,6:0-22:0,6:0-22:0,6:0-22:0,6:0-22:0,6:0-22:0,6:0-22:0,6:0-22:0,3,AB,"Gateway Village, 2 Hebert Road",1,53.6224138,-113.6075804,NA,NA,False,NA,True,Nemb9iLSuFgHsU6Rv8Y1Tg,T8N 5T8,8
Nashville,Panda Express,11:0-19:0,11:0-19:0,11:0-19:0,11:0-19:0,11:0-19:0,11:0-19:0,12:0-18:0,3,TN,455 Opry Mills Dr,1,36.2027284902,-86.6944885254,u'no',True,True,True,True,8SqvtaRu9likNDAfAU-HBQ,37214,15
Nashville,Burger King,6:0-23:0,6:0-23:0,6:0-23:0,6:0-23:0,6:0-20:0,10:30-23:0,6:0-23:0,1.5,TN,363 Harding Pl,1,36.0842766668,-86.7042401,'free',NA,True,True,True,diqXZ9CBFlIHW7i9UHefhw,37211,9
Lansdale,Wendy's,6:30-0:0,6:30-0:0,6:30-0:0,6:30-0:0,6:30-0:0,6:30-0:0,6:30-0:0,2,PA,1758 Allentown Road,1,40.2590433156,-75.325845754,NA,NA,True,True,True,0HgAYe8KZ_8nHyELHFwrpA,19446,13
Indianapolis,Firehouse Subs,10:30-21:0,10:30-21:0,10:30-21:0,10:30-21:0,10:30-21:0,10:30-21:0,10:30-21:0,3,IN,5963 E 82nd St,0,39.90473,-86.06554,u'no',False,True,True,True,Vj_72qKqpL10ECZfbHDyBw,46250,16
Tampa,YO! Sushi,11:0-21:0,11:0-21:0,11:0-21:0,11:0-21:0,11:0-21:0,11:0-21:0,11:0-18:0,4,FL,"International Plz, 2223 N Westshore Blvd",0,27.964536,-82.520756,'free',False,True,True,True,v8IbZ6wcvdyGqWpbDKDvfA,33607,121
Santa Barbara,Subway,8:0-22:0,8:0-22:0,8:0-22:0,8:0-22:0,8:0-22:0,10:0-22:0,10:0-22:0,3,CA,"1936 State St, Ste B",0,34.430822,-119.714156,NA,NA,False,True,True,Hqz96v1ymucUKNzIWfEKXw,93101,5
Nashville,Captain D's,0:0-0:0,10:30-21:0,10:30-21:0,10:30-21:0,10:30-18:0,10:30-21:0,10:30-21:0,3.5,TN,2633 Lebanon Pike,1,36.16937,-86.67255,u'no',NA,True,True,True,J7Oo9rhwX7O3ak54pu_Mhg,37214,14
Edmonton,Shanghai 360,10:0-18:0,10:0-18:0,10:0-18:0,10:0-20:0,10:0-20:0,10:0-18:0,12:0-17:0,2.5,AB,"10025 102A Avenue NW, 3rd Floor",0,53.543873791,-113.4928506434,NA,NA,False,NA,False,kB_937pEPUD5iwVY12SCbg,T5J,6
Philadelphia,Crown Fried Chicken,10:0-3:0,10:0-3:0,10:0-3:0,10:0-3:0,10:0-3:0,10:0-4:0,10:0-4:0,3.5,PA,933 N Broad St,1,39.971145,-75.15902,NA,NA,True,True,True,aurl4I40YVQfQ8loOdgKCg,19123,11
Sherwood Park,Fresh Healthy Cafe,7:0-20:0,7:0-20:0,7:0-20:0,7:0-20:0,7:0-20:0,10:0-16:0,10:0-16:0,3.5,AB,4005 Clover Bar Road,1,53.5568884242,-113.2741134955,NA,NA,False,NA,True,iapJoe3OzxeZqOGUJxnG3w,T8H 0M4,8
Kenner,Pizza Hut,11:0-22:0,11:0-22:0,11:0-22:0,11:0-22:0,11:0-23:0,11:0-23:0,11:0-22:0,2,LA,317 W Esplanade Ave,1,30.0226540534,-90.2691832749,u'no',NA,True,True,False,UJE-f8gVEB2za5QPZd_wVw,70065,16
Springfield,Captain D's,0:0-0:0,10:45-22:0,10:45-22:0,10:45-22:0,10:45-18:0,10:45-22:0,10:45-22:0,2,TN,2123 Memorial Blvd,1,36.4922337558,-86.875317026,u'no',NA,True,True,True,3GGGwkQ8A0ICQTfwTKPiQw,37172,10
Metairie,Burger King,5:30-1:0,5:30-1:0,5:30-1:0,5:30-1:0,5:30-22:0,11:0-1:0,6:0-0:0,1.5,LA,916 Veterans Memorial Blvd,1,30.0010945472,-90.1325079767,u'no',NA,True,True,True,AjEg3RzLzQwv4xPPzTc6wQ,70005,23
Tampa,Zaxby's Chicken Fingers & Buffalo Wings,10:30-22:0,10:30-22:0,10:30-22:0,10:30-22:0,10:30-23:0,10:30-23:0,11:0-22:0,3,FL,11619 W Hillsborough Ave,1,28.0146920537,-82.6140054742,'free',True,True,True,True,j5U5O3scMvPe67jzJcWFug,33635,37
Reno,El Pollo Loco,0:0-0:0,10:0-22:0,10:0-22:0,10:0-22:0,10:0-22:0,11:0-20:0,10:0-22:0,3,NV,8030 S Virginia St,1,39.4555489488,-119.7781964498,u'no',True,True,True,True,RCguFZat10TcbDMeeeM3IQ,89511,73
Reno,Pizza Hut,10:0-22:0,10:0-22:0,10:0-22:0,10:0-22:0,10:0-23:0,10:0-23:0,10:0-22:0,2,NV,202 Lemmon Dr,1,39.6132777,-119.8478089,'no',NA,True,True,True,XsjesLpDVSToQIxSeON70A,89506,48
Tampa,Subway,9:0-18:0,9:0-23:30,9:0-23:30,9:0-23:30,9:0-23:30,9:0-23:30,10:0-23:30,3,FL,19410 N Bruce B Downs Blvd,1,28.15011,-82.3539970377,'free',False,True,True,True,gi90NMmRhzl8vzM83UNOVA,33647,14
Nashville,Subway,NA,NA,NA,NA,NA,NA,NA,1.5,TN,99 White Bridge Rd,0,36.1316071,-86.8581153,u'no',NA,False,True,False,qZIiURCjON7QcTzNtG9JpQ,37205,8
Indianapolis,Auntie Anne's,11:0-19:0,11:0-19:0,11:0-19:0,11:0-19:0,11:0-19:0,11:0-19:0,12:0-18:0,3,IN,"6020 E 82nd St, Spc 138A",1,39.908954,-86.065503,NA,NA,True,True,NA,1X0ZCiRUWkVsdINtZmRSiw,46250,7
Tampa,Zeko's Mediterranean Grill,10:0-4:0,10:0-4:0,10:0-4:0,10:0-4:0,10:0-4:0,10:0-4:0,10:0-4:0,4.5,FL,3609 E Busch Blvd,1,28.0322261,-82.4189253,'free',True,True,True,True,I1h0GRYp86eX-XqwVXsSGA,33612,345
Sparks,Wendy's,7:0-0:0,7:0-0:0,7:0-0:0,7:0-0:0,7:0-1:0,7:0-1:0,7:0-0:0,2.5,NV,440 N Mccarran Blvd,1,39.5380547,-119.734624,u'no',True,True,True,True,ruFtZKwlJASx5BTk1dh5AQ,89431,35
Philadelphia,McDonald's,6:0-0:0,6:0-0:0,6:0-0:0,6:0-0:0,6:0-1:0,6:0-1:0,6:0-0:0,2,PA,914 S Broad St,0,39.9394402,-75.1668049,'free',True,True,True,False,kgMEBZG6rjkGeFzPaIM4MQ,19146,55
Indianapolis,Rally's,10:0-1:0,10:0-1:0,10:0-1:0,10:0-1:0,10:0-2:0,10:0-2:0,10:0-1:0,1,IN,5235 E. Southport Rd.,0,39.6657537565,-86.0787451367,'no',NA,False,NA,False,69y8BIrahfo6I_5AkIYf-g,46237,9
Tampa,Burger King,5:0-0:0,5:0-0:0,5:0-0:0,5:0-0:0,0:0-0:0,0:0-0:0,5:0-0:0,2,FL,4403 W Gandy Blvd,1,27.8937618,-82.5193236,NA,NA,True,True,NA,J8j18KB--ZH4MjTQryPEpA,33611,11
Sun City Center,McDonald's,0:0-0:0,0:0-0:0,0:0-0:0,0:0-0:0,0:0-0:0,0:0-0:0,0:0-0:0,2,FL,3110 Sr 674,1,27.7137051861,-82.3929427564,'free',True,True,True,True,cwvpVlg5BE2XXRWTHe3p9w,33570,24
Sherwood Park,A&W,0:0-0:0,0:0-0:0,0:0-0:0,0:0-0:0,0:0-0:0,0:0-0:0,0:0-0:0,3,AB,222 Baseline Road,1,53.5415746113,-113.3188727252,NA,NA,True,NA,True,h3801KOXLyOt8BAMa1V5HQ,T8H 1S8,8
Indianapolis,Hardee's,0:0-0:0,0:0-0:0,0:0-0:0,0:0-0:0,0:0-0:0,0:0-0:0,0:0-0:0,2.5,IN,4401 E 10th St,1,39.781017,-86.09366,u'no',True,True,True,False,rKwIFN1poV6gHBIxp3FxkA,46201,6
Tucson,Little Caesars Pizza,10:30-23:0,10:30-23:0,10:30-23:0,10:30-23:0,10:30-0:0,10:30-0:0,10:30-23:0,2,AZ,1625 W Valencia Suite 111,1,32.1322587,-110.9993545,NA,NA,True,True,False,J1duow_JpO47UuqnrY_LaA,85746,10
Franklin,McDonald's,4:0-23:0,4:0-23:0,4:0-23:0,4:0-23:0,4:0-0:0,4:0-0:0,4:0-23:0,2.5,TN,653 Frazier Dr,1,35.9453792141,-86.8237428367,'free',True,True,True,True,N7wYxm84QtcqTJZfGWpxzw,37067,24
Reno,Subway,8:0-21:0,8:0-21:0,8:0-21:0,8:0-21:0,8:0-21:0,10:0-20:0,10:0-20:0,2,NV,"400 W 5th St, Ste 105",0,39.5302163,-119.8199067,u'no',NA,False,True,False,xxxL7I3hGCEymNlYLXUyBA,89503,5
Tucson,Subway,0:0-0:0,NA,9:0-20:0,NA,NA,NA,NA,3.5,AZ,"7555 N La Cholla Blvd, Ste 145, Foothills Mall",1,32.3435651,-111.0132429,NA,NA,True,True,True,S3WazoxfO3euuvQUOJRlFA,85741,6
Florissant,McDonald's,0:0-0:0,0:0-0:0,0:0-0:0,0:0-0:0,0:0-0:0,0:0-0:0,0:0-0:0,1.5,MO,3165 N Hwy 67,1,38.8107873585,-90.2969466057,u'free',True,True,True,True,aqubLw9IW03svL_uDXNJ8A,63033,11
Metairie,Pizza Hut,10:30-21:0,10:30-21:0,10:30-21:0,10:30-21:0,10:30-21:0,10:30-21:0,10:30-21:0,2.5,LA,2312 David Dr,1,29.9973903816,-90.2184122801,'no',NA,True,True,True,CILklubZslDuVUMh2c55_A,70003,17
St Louis,QuikTrip,0:0-0:0,0:0-0:0,0:0-0:0,0:0-0:0,0:0-0:0,0:0-0:0,0:0-0:0,4.5,MO,3475 Lemay Ferry rd,1,38.5119857,-90.3191137,NA,NA,False,True,NA,44FugwIywDjD6TwSESAmkw,63125,5
Woodstown,McDonald's,0:0-0:0,0:0-0:0,0:0-0:0,0:0-0:0,0:0-0:0,0:0-0:0,0:0-0:0,1.5,NJ,400 West Ave,1,39.6470143366,-75.3344234117,u'free',True,True,True,False,NyV_2EGhs-YHYYVmZRYmOQ,08098,14
Belleville,Wendy's,10:0-0:0,10:0-0:0,10:0-0:0,10:0-0:0,10:0-0:0,10:0-0:0,10:0-0:0,2,IL,5959 Belleville Crossing St,1,38.5293592,-90.0356064,NA,NA,True,True,True,q3AbKPlzrqbUh8tz26vsdQ,62226,7
Port Richey,Steak ’n Shake,0:0-0:0,0:0-0:0,0:0-0:0,0:0-0:0,0:0-0:0,0:0-0:0,0:0-0:0,2.5,FL,9116 US Highway 19 N,1,28.2899929559,-82.711233436,u'free',True,True,True,True,sVWUxesVKseXGq78UwwajA,34668,45
Belleville,McDonald's,5:0-0:0,5:0-0:0,5:0-0:0,5:0-0:0,5:0-0:0,5:0-0:0,5:0-0:0,1.5,IL,7301 Westfield Plz,0,38.544739774,-90.0519396365,u'free',True,True,True,NA,Jn5nZ0b-cdBS2xHnF4msug,62223,12
Indianapolis,Arby's,NA,NA,NA,NA,NA,NA,NA,3.5,IN,3846 Lafayette Rd,1,39.8255452,-86.2371468,NA,True,True,True,True,PVqNBGihp6yNv6HTQf7CjA,46254,10
Willow Grove,Burger King,6:0-0:0,6:0-23:0,6:0-0:0,6:0-0:0,6:0-22:0,6:0-0:0,6:0-22:0,2,PA,106 York Rd,1,40.1432439,-75.115404,'free',NA,True,True,True,73ZQXm26Mb4Pr-ibmeGk6Q,19090,15
Largo,Wendy's,9:0-1:0,9:0-1:0,9:0-1:0,9:0-1:0,9:0-1:0,9:0-1:0,9:0-1:0,2,FL,11760 Oakhurst Road,1,27.8790638,-82.8327419,'free',NA,True,True,True,1lC4dy6jlB2tBdBWbocO7Q,33774,22
New Orleans,Rally's,10:0-4:0,10:0-4:0,10:0-4:0,10:0-5:0,10:0-6:0,10:0-6:0,10:0-4:0,1.5,LA,2201 S. Claiborne Ave.,1,29.9452593,-90.0906756,u'no',NA,True,True,False,qejPFPUKiIXvHJ4BirgLUw,70125,13
Cahokia,Taco Bell,10:0-22:0,10:0-22:0,10:0-22:0,10:0-22:0,10:0-22:0,10:0-22:0,10:0-22:0,1.5,IL,1616 Camp Jackson Road,1,38.5532348,-90.1661599,u'free',True,True,True,True,YWcH3SLyRIBHIBBgudqZLw,62206,8
Reno,Panda Express,10:30-21:30,10:30-21:30,10:30-21:30,10:30-21:30,10:30-21:30,10:30-21:30,10:30-21:30,2.5,NV,5140 Kietzke Lane Suite E,1,39.4749646908,-119.7922227358,'no',False,True,True,True,UKA2eeAZmO4ACB2J0kFISw,89509,86
Belleville,Super Gyros,10:0-21:0,10:0-21:0,10:0-21:0,10:0-21:0,10:0-22:0,10:0-22:0,NA,4.5,IL,766 Carlyle Ave,1,38.5170210269,-89.9513851956,'no',True,True,True,True,bQKqeYwaHNal7JFAXzCMFg,62221,79
Indianapolis,Jimmy John's,11:0-22:0,11:0-22:0,11:0-22:0,11:0-22:0,11:0-22:0,11:0-22:0,11:0-22:0,3.5,IN,"6260 Intech Commons Rd, Ste C",1,39.880535,-86.271365,u'no',True,True,True,True,sNDXKUS14_xXdD0fJdw23g,46278,14
Reno,Quiznos,10:0-21:0,10:0-21:0,10:0-21:0,10:0-21:0,10:0-21:0,10:0-21:0,11:0-20:0,3.5,NV,"2905 Northtowne Ln, Ste 120",1,39.5571203,-119.7826597,u'no',False,True,True,False,z3MQ4dmYICABaayF66NV3A,89512,32
Indianapolis,Hardee's,5:0-23:0,5:0-23:0,5:0-23:0,5:0-23:0,5:0-23:0,6:0-23:0,6:0-22:0,2,IN,8015 S Meridian St,1,39.6507829,-86.1578281,NA,True,True,True,True,LPWkWjR-K21nikUxQtQNtg,46217,11
Belleville,McDonald's,5:0-0:0,5:0-0:0,5:0-0:0,5:0-0:0,5:0-1:0,5:0-1:0,5:0-0:0,1.5,IL,906 Carlyle Ave,1,38.5175290922,-89.9490435503,u'free',True,True,True,True,3bmrxhqVpB5XCg-4j6y39A,62221,19
Edmonton,Nam Kitchen Express,11:0-21:0,11:0-21:0,11:0-15:0,11:0-21:0,11:0-21:0,11:0-21:0,11:0-20:0,4,AB,9316 - 137 Avenue NW,1,53.6001157,-113.4858681,'no',NA,True,NA,False,QMaXUlBsA0SLiYZOzDAjVQ,T5E 6C1,13
Saint Petersburg,Dooners,11:30-15:0,11:30-15:0,11:30-15:0,11:30-20:0,11:30-3:30,11:30-3:30,12:0-20:0,3.5,FL,21 3rd St N,0,27.7718011011,-82.6369077739,u'free',NA,True,True,True,1_hDCN3iioFR3XnUr32ZtA,33701,109
Nashville,Jack In the Box,6:0-23:0,6:0-23:0,6:0-23:0,6:0-23:0,6:0-23:0,6:0-23:0,6:0-23:0,3,TN,3133 Lebanon Pike,0,36.1822890122,-86.6399734326,NA,NA,False,True,True,NvJg4ysrB7J0hrsb2A0gUg,37214,7
Eddystone,McDonald's,5:30-4:0,5:30-4:0,5:30-4:0,5:30-4:0,5:30-4:0,5:30-4:0,5:30-0:0,2.5,PA,1576 Chester Pike,1,39.8658758188,-75.3417693079,u'free',True,True,True,True,3_kZ2pDiKJLZ9kGKKOWqdA,19022,15
Tucson,Panda Express,9:30-22:0,9:30-22:0,9:30-22:0,9:30-22:0,9:30-22:30,10:0-22:30,10:0-22:0,1.5,AZ,1606 W Valencia Rd,1,32.1342676,-110.9998502,'no',True,True,True,True,Y70T1eClNnw_PlBkr1IHqg,85746,44
Marana,McDonald's,5:0-23:0,5:0-23:0,5:0-23:0,5:0-23:0,5:0-23:0,5:0-23:0,6:0-23:0,1.5,AZ,3640 W Tangerine Rd,1,32.424583,-111.043025,u'free',True,True,NA,True,L3u4I6wHtwMQJ-ZtvfrkkQ,85742,36
Marlton,Burger King,6:0-0:0,6:0-0:0,6:0-0:0,6:0-0:0,6:0-0:0,6:0-0:0,7:0-0:0,2.5,NJ,"101 E Rt 70, Ste A",0,39.8928598,-74.9157392,NA,NA,False,True,True,iPM6J0JxLjXZtExli1OBDA,08053,8
Indianapolis,Chipotle Mexican Grill,0:0-0:0,11:15-21:15,11:15-21:15,11:15-21:15,11:15-21:15,11:15-21:15,11:15-21:15,3,IN,"1560 E 86th St, Ste C",1,39.912878,-86.134275,'no',NA,True,True,True,AmnnsJq4Pz1jJUFzHwtsOA,46240,65
Saint Louis,Cini,11:0-22:0,11:0-22:0,11:0-22:0,11:0-22:0,11:0-22:0,11:0-22:0,11:0-22:0,3,MO,8831 Ladue Rd,0,38.6536500187,-90.3492353364,NA,NA,NA,True,NA,7czFDmcXhqzcqvUnenNg6w,63124,9
Indianapolis,White Castle,5:0-5:0,5:0-5:0,5:0-5:0,5:0-5:0,5:0-5:0,5:0-5:0,5:0-5:0,2.5,IN,102 W 16th St,1,39.7887342,-86.1596367,NA,True,True,True,True,WtvENhqvWpjQtfe0OvUwSg,46202,20
Smyrna,Smyrna Cafe,8:0-19:0,8:0-19:0,11:0-19:0,8:0-20:0,7:30-20:0,7:30-20:0,8:0-16:0,4,TN,1666 Lee Victory Pkwy,1,35.9416454189,-86.5283457257,'no',False,False,True,True,Y2jDVmMpRzQRg6HkNvQc8g,37167,184
Willow Grove,Auntie Anne's,11:0-19:0,11:0-19:0,11:0-19:0,11:0-19:0,11:0-19:0,11:0-19:0,12:0-18:0,2.5,PA,"2500 W Moreland Rd, Ste Fc1",1,40.1403336543,-75.1235461638,NA,NA,True,True,NA,MzBXuXfCZi2VJ-ZKPAfdvw,19090,6
Tarpon Springs,Subway,9:0-21:0,9:0-21:0,9:0-21:0,9:0-21:0,9:0-20:0,11:0-21:0,9:0-21:0,3.5,FL,41220 US Hwy 19N,1,28.146935335,-82.7414761083,NA,False,True,True,False,iyI-PmAhYEktWu81_p3ukw,34689,6
Boise,Gyro Shack,0:0-0:0,10:0-21:0,10:0-18:0,10:0-21:0,10:0-18:0,10:0-21:0,11:30-19:0,4,ID,5602 W State St,1,43.6562033682,-116.2585391,u'no',True,True,True,False,-TRXiliBZ2O2_BKyKQ32HA,83703,67
Clearwater,Pizza Hut,10:0-0:0,10:0-0:0,10:0-0:0,10:0-0:0,10:0-1:0,10:0-1:0,10:0-0:0,3,FL,5020 E Bay Dr,1,27.9179833,-82.734651,NA,NA,NA,NA,NA,uxJRSGuOpTv4g7U7gWANyw,33764,9
Sicklerville,Applebee's Grill + Bar,0:0-0:0,11:0-20:0,11:0-20:0,11:0-20:0,11:0-19:0,11:0-1:0,11:0-20:0,2.5,NJ,455 Berlin - Cross Keys Rd,1,39.748982,-74.990204,u'free',NA,True,True,True,wn1rS1Ga9xZ1BIMffnJW5A,08081,39
Alton,Taco Bell,8:0-22:0,8:0-22:0,8:0-22:0,8:0-23:0,8:0-23:0,8:0-23:0,8:0-22:0,1,IL,620 E. Landmarks Blvd.,1,38.888951,-90.17685,NA,True,True,True,False,c6xp1swmd-_P87kt3xggDA,62002,16
Cherry Hill,Chipotle Mexican Grill,0:0-0:0,10:45-22:0,10:45-22:0,10:45-22:0,10:45-22:0,10:45-22:0,10:45-22:0,2.5,NJ,818 Haddonfield Rd,1,39.9274404658,-75.0318763641,'no',False,True,True,True,C3Nc7EUqo64jRPWPn6vY9w,08002,73
Sparks,Firehouse Subs,0:0-0:0,10:30-16:0,10:30-21:0,10:30-21:0,10:30-21:0,10:30-21:0,10:30-21:0,4,NV,593 E Prater Way,1,39.5415757,-119.7366051,NA,True,None,True,NA,E0KwLVaQ-uKEjJl3j_VAGQ,89431,87
Reno,McDonald's,6:0-23:0,6:0-23:0,6:0-23:0,6:0-23:0,6:0-0:0,6:0-1:0,6:0-23:0,1.5,NV,432 N Virginia Ave,0,39.530632,-119.814276,u'free',True,True,True,True,7YiLEuHuUONZrMPT0OxXUQ,89501,89
New Orleans,Chubbie's Fried Chicken,11:0-18:30,11:0-18:30,11:0-18:30,11:0-18:30,11:0-19:0,NA,NA,4,LA,4850 General Meyer Ave,1,29.9320808,-90.0030653,u'no',True,False,True,False,HKLFG2qKkd5X1IyfwYlYqQ,70131,70
Indianapolis,Subway,9:30-21:0,9:30-21:0,9:30-21:0,9:30-21:0,9:30-20:0,10:0-19:0,10:0-19:0,2.5,IN,8535 Ditch Rd,1,39.9102068,-86.1833818231,NA,NA,True,True,NA,pFtvNuoUppn9GYx0_ZsW5w,46260,6
Philadelphia,George's Wings,11:0-22:0,11:0-22:0,11:0-22:0,11:0-22:0,11:0-23:0,11:0-23:0,12:0-22:0,3.5,PA,3818 Morrell Ave,1,40.0643044322,-74.9868814021,u'no',NA,True,True,True,fr2qDm_mY1afIGMvqsKUCg,19114,50
Reno,El Pollo Loco,0:0-0:0,10:0-22:0,10:0-22:0,10:0-22:0,10:0-22:0,11:0-20:0,10:0-22:0,3.5,NV,10320 N Mccarran Blvd,1,39.5321041,-119.8640278,'no',True,True,True,True,k9A4tAmei12tLprkrNPkcg,89503,54
Saint Louis,KFC,NA,NA,NA,NA,NA,NA,NA,1.5,MO,430 S 15th St,0,38.6249,-90.2036,'no',False,False,True,False,nqzOH_1CBGe2VrsxTziuvg,63103,5
Nashville,Krystal,0:0-0:0,0:0-0:0,0:0-0:0,0:0-0:0,0:0-0:0,0:0-0:0,0:0-0:0,2.5,TN,1201 Murfreesboro Rd,0,36.0152661,-86.7034410685,'free',NA,True,True,True,0_fd3nMhIVlJyLV76dTCAQ,37217,9
Tarpon Springs,Poké Poké Bowl,NA,11:30-19:0,11:30-19:0,11:30-19:0,11:30-19:0,11:30-19:0,11:30-17:0,4.5,FL,"927 Dodecanese Blvd, Ste 2",0,28.1551896,-82.7638098,NA,NA,None,True,False,71b0dSgq1XTYYYWs24Fhow,34689,68
Morrisville,McDonald's,6:0-0:0,6:0-0:0,6:0-0:0,6:0-0:0,6:0-1:0,6:0-1:0,6:0-0:0,2,PA,321 W Trenton Ave,1,40.2104139103,-74.7951225,u'free',True,True,True,True,y0pfoNQOyrb98aEIdH6cnA,19067,20
Indianapolis,Taco Bell,7:0-21:30,7:0-21:30,7:0-21:30,7:0-21:30,7:0-22:0,7:0-21:30,7:0-21:30,2.5,IN,3423 W 86th St,1,39.911536,-86.219848,u'no',True,True,True,True,to95MZH1XV_fNLOXNMZQmQ,46268,21
Edmonton,Taco Bell,NA,NA,NA,NA,NA,NA,NA,1.5,AB,4950 Av 101 No,1,53.5416544,-113.4175072,NA,NA,NA,NA,NA,oR3iGLhTW3UiABNEhmMcUg,T6A 3Y1,6
Bellevue,Sonic Drive-In,0:0-0:0,7:0-22:0,7:0-22:0,7:0-22:0,6:0-22:0,9:0-22:0,8:0-22:0,1.5,TN,617 Old Hickory Blvd,1,36.1083438,-86.9230086,'no',True,True,True,False,O8RzM_uLVEnDWEhX3whqtQ,37209,34
Tucson,eegee's,0:0-0:0,9:30-22:0,9:30-22:0,9:30-22:0,9:30-18:0,9:30-19:0,9:30-22:0,3,AZ,3250 E Valencia Rd,1,32.13398888,-110.8383689,'no',True,True,True,True,CR4JNMaB4FLBuqgyj79ZRQ,85706,35
Philadelphia,McDonald's,6:0-23:0,6:0-23:0,6:0-23:0,6:0-4:0,0:0-0:0,0:0-0:0,4:0-23:0,1,PA,1201 N Broad St,0,39.9720955382,-75.1588091254,NA,NA,True,True,False,gq4zw-ru_rkZ2UBIanaZFQ,19122,38
Indianapolis,Subway,0:0-0:0,7:0-21:0,7:0-21:0,7:0-21:0,7:0-21:0,8:0-21:0,9:0-20:0,2,IN,2501 National Ave,1,39.711916,-86.1187852,NA,NA,True,True,True,jLNxPH975elBwriKSjhw7w,46227,5
Tucson,Wienerschnitzel,9:0-0:0,9:0-0:0,9:0-0:0,9:0-0:0,9:0-0:0,9:0-0:0,9:0-0:0,3,AZ,2043 East Broadway Blvd,0,32.2217236,-110.9413264,u'no',NA,False,True,True,7E3mhfqDUSe0oKaZ9VikGg,85719,6
Brandon,McDonald's,0:0-0:0,0:0-0:0,0:0-0:0,0:0-0:0,0:0-0:0,0:0-0:0,0:0-0:0,1.5,FL,11212 Causway Blvd,1,27.923798,-82.323313,'free',True,True,True,True,9DhjKaR2f9wKATnUvxBAgg,33511,29
Wilmington,KFC,0:0-0:0,10:30-0:0,10:30-0:0,10:30-0:0,10:30-0:0,10:30-0:0,10:30-0:0,3,DE,1925 Lancaster Ave,1,39.7469589437,-75.5741865492,'free',NA,None,True,NA,xNWueX3uZjmixQUkY38GzQ,19805,5
Riverview,Chick-fil-A,6:0-22:0,6:0-22:0,6:0-22:0,6:0-22:0,6:0-22:0,6:0-22:0,NA,1.5,FL,12810 Summerfield Crossing Blvd,1,27.7977129,-82.3339698,NA,True,True,NA,NA,EQoeJ4o6re7EC4_EONXPlg,33579,87
Edmonton,Subway,7:0-0:0,7:0-0:0,7:0-0:0,7:0-0:0,7:0-2:0,9:0-2:0,9:0-23:0,3,AB,"LongSt Shopping Centre, 11323 104th Ave",1,53.5458546,-113.5165904,u'free',NA,False,NA,True,yDriUh65Wpx1HnTmXln9nw,T5K 2S1,9
New Orleans,Raising Cane’s,10:0-0:0,10:0-0:0,10:0-0:0,10:0-0:0,10:0-0:0,10:0-0:0,10:0-0:0,2.5,LA,4740 Chef Menteur Hwy,1,30.0059929425,-90.0335249736,'no',True,False,True,True,ZNXNmJV8fXu7dv1hqXeq1Q,70126,21
Indianapolis,Taco Bell,10:30-20:30,10:30-20:30,10:30-20:30,10:30-20:30,10:30-20:30,10:30-20:30,10:30-20:30,1.5,IN,2401 N Meridian St,1,39.80109,-86.15661,u'no',True,True,True,False,FZCj995CEL2G-JTiLC3Azw,46208,38
Kennett Square,McDonald's,5:0-0:0,5:0-0:0,5:0-0:0,5:0-0:0,5:0-0:0,5:0-0:0,5:0-0:0,1.5,PA,399 Scarlet Rd New Garden Shopping Ctr,1,39.8423291687,-75.7296930161,u'free',True,True,True,True,HvFHRwDDu36nBGSyEv81WQ,19348,13
Trenton,McDonald's,4:0-0:0,4:0-0:0,4:0-0:0,4:0-0:0,4:0-0:0,4:0-0:0,5:0-0:0,1.5,NJ,501 Chambers St,1,40.2174128225,-74.7435072848,u'free',True,True,NA,NA,8ZHMr31oBElXmaqSmZJs2Q,08609,9
Indianapolis,QDOBA Mexican Eats,10:30-22:0,10:30-22:0,10:30-22:0,10:30-22:0,10:30-21:0,10:30-23:0,10:30-22:0,2.5,IN,"907 Indiana Ave, Ste A",1,39.7797445,-86.1728502,'free',NA,True,True,True,Gf1EboxqdJ9SPsVJur93Cw,46204,68
Sparks,KFC,10:30-22:0,10:30-22:0,10:30-22:0,10:30-22:0,10:30-22:0,10:30-22:0,10:30-22:0,2,NV,275 N Mccarran St,1,39.5357831889,-119.7373932944,u'free',True,True,True,True,1ol8rghO_5m0M5WFMv-C8Q,89431,32
Mount Laurel,Trywith,NA,NA,NA,NA,NA,NA,NA,4.5,NJ,"1200 S Church St, Ste 108",0,39.9199498,-74.9283212,u'free',NA,None,True,NA,hgdh0gKSczCIjLikWtZpGg,08054,14
Willingboro,Taco Bell,8:0-23:0,8:0-23:0,8:0-23:0,8:0-23:0,8:0-23:0,8:0-23:0,8:0-23:0,2.5,NJ,4402 A Rt 130,1,40.055,-74.885,'no',True,True,True,True,2wSy-l44n1W2E-5R6QGRug,08046,14
Smyrna,Steak ’n Shake,10:0-22:0,10:0-22:0,10:0-22:0,10:0-22:0,10:0-22:0,10:0-22:0,10:0-22:0,1.5,TN,951 Sgt Asbury Hawn Way,1,35.9669111,-86.4955681,u'free',True,True,True,NA,iM1hWCwxoqO-d_djiKpEXQ,37167,38
Tucson,Chipotle Mexican Grill,10:45-21:0,10:45-21:0,10:45-21:0,10:45-21:0,10:45-21:0,10:45-21:0,10:45-21:0,3.5,AZ,4500 N Oracle Rd Fc10,0,32.288873,-110.974068,NA,NA,False,True,True,2wEnpf2eu98rcYc540UN3Q,85705,14
Glenolden,Everything Jamaican,NA,NA,11:0-20:0,11:0-20:0,11:0-20:0,11:0-21:0,NA,3.5,PA,10 Glenolden Ave,0,39.8972983,-75.291665,u'no',NA,True,True,False,4cK4FDxVNZxGDK-TFHzw5g,19036,15
St. Louis,McDonald's,6:0-23:0,6:0-23:0,6:0-23:0,6:0-23:0,6:0-23:0,6:0-23:0,6:0-23:0,1.5,MO,4620 S Kingshighway,1,38.586257,-90.276034,'free',True,True,True,True,rH0FgPdxWWhH4YFz4mempg,63109,39
Saint Louis,Hardee's,5:0-22:0,5:0-22:0,5:0-22:0,5:0-22:0,5:0-23:0,5:0-23:0,6:0-22:0,2,MO,11938 Dorsett Rd,1,38.7141917757,-90.4359318789,u'free',True,True,True,True,UYOZc-cC932HirQyMmqhfA,63043,10
Apollo Beach,Shenaniganz Chill and Grill,11:0-0:0,11:0-2:0,11:0-1:0,11:0-3:0,11:0-3:0,11:0-3:0,11:0-1:0,3,FL,5813 N US Hwy 41,0,27.7595002941,-82.3994485574,u'no',NA,False,True,True,W2zeT_DtJq9GYDUJrzmFOA,33572,9
Sherwood Park,Wendy's,NA,NA,NA,NA,NA,NA,NA,2,AB,198 Ordze Avenue,1,53.51163758,-113.3195885271,NA,NA,True,NA,False,PnU06WLiaqDeaNSSRDH1cg,T8B 1M6,8
Granite City,Jimmy John's,11:0-20:0,11:0-20:0,11:0-20:0,11:0-20:0,11:0-20:0,11:0-20:0,11:0-20:0,2.5,IL,3142 Nameoki Rd,1,38.7196001,-90.1223392,'no',True,True,True,True,at5w9OCM1ex1Y4mWCQB2Bw,62040,9
Carmel,Chipotle Mexican Grill,0:0-0:0,12:0-20:0,12:0-20:0,12:0-20:0,12:0-20:0,12:0-20:0,12:0-20:0,3,IN,"12697 N Pennsylvania St, Ste 100",1,39.972526,-86.1545574432,NA,False,True,True,True,r7WwdseoJpfna4a57qeiag,46032,50
Sahuarita,McDonald's,0:0-0:0,0:0-0:0,0:0-0:0,0:0-0:0,0:0-0:0,0:0-0:0,0:0-0:0,1.5,AZ,775 W Via Rancho Sahuarita Rd,1,31.9573971,-110.9817025,u'free',True,True,True,True,5ewePyN_mEE_79OmYyYBEA,85629,83
Saint Louis,Mack's Chicken,7:0-22:0,7:0-22:0,7:0-22:0,7:0-22:0,7:0-22:0,7:0-22:0,7:0-22:0,3,MO,2170 Chambers Rd,1,38.7488365173,-90.2544937134,u'no',NA,False,True,True,mJJTx-x896dLV2gSMwQ35g,63136,22
Sparks,Subway,NA,NA,NA,NA,NA,NA,NA,2.5,NV,"287 Los Altos Pkwy, Ste 103",0,39.5834734,-119.7392754,NA,NA,False,True,NA,HZtkTPfSshfRjpQR7x1Raw,89436,9
Gretna,Wendy's,10:0-1:0,10:0-1:0,10:0-1:0,10:0-1:0,10:0-2:0,10:0-2:0,10:0-1:0,1.5,LA,1190 Terry Pkwy.,1,29.8896265,-90.0314708,NA,NA,True,True,False,LZEe4gVp1BNqYdGl-OZzBg,70056,17
O Fallon,Taco Bell,7:0-3:0,7:0-3:0,7:0-3:0,7:0-3:0,7:0-4:0,7:0-4:0,7:0-3:0,2,IL,1403 W US Highway 50,1,38.5921557583,-89.9510618445,u'free',True,True,True,True,bxjOSldtLatq7jX4j0lKuQ,62269,18
Fenton,Subway,9:0-22:0,9:0-22:0,9:0-22:0,9:0-22:0,9:0-22:0,9:0-22:0,9:0-21:0,2.5,MO,"180 Gravois Bluffs Circle Dr, Ste C",1,38.5026410247,-90.4449960697,NA,False,True,True,True,zJdQwRbI7p0bH_60sfBSYA,63026,13
Indianapolis,QDOBA Mexican Eats,10:30-22:0,10:30-22:0,10:30-22:0,10:30-22:0,7:0-20:0,10:30-23:0,10:30-22:0,3.5,IN,"5630 W 86th St, Ste 144",1,39.9122914838,-86.2608343363,'no',False,True,True,True,EYihmDxqVkspEaXgCorISQ,46278,21
Deptford,McDonald's,0:0-0:0,0:0-0:0,0:0-0:0,0:0-0:0,0:0-0:0,0:0-0:0,0:0-0:0,2,NJ,1106 Hurffville Rd,1,39.8373782253,-75.0885714591,u'free',True,True,True,True,zdG9d52hqH0JIk65LQzcaA,08096,34
Brentwood,Sonic Drive-In,0:0-0:0,6:0-22:0,10:0-16:0,10:0-16:0,6:0-22:0,8:0-22:0,8:0-21:0,3.5,TN,1718 Carouthers Pkwy,1,35.9632992,-86.7998180865,'no',True,True,True,True,MPY4UwRBU_wYxlaYViIHMw,37027,20
Belleville,Captain D's,0:0-0:0,10:30-21:0,10:30-21:0,10:30-21:0,10:30-18:0,10:30-21:0,10:30-21:0,3,IL,649 Carlyle Ave,1,38.516857,-89.9561086403,u'no',True,True,True,True,7euWu2NslP7Qz1GVTBhlEw,62221,12
Boise,Carl's Jr,6:0-0:0,6:0-0:0,6:0-0:0,6:0-0:0,6:0-0:0,6:0-0:0,7:0-0:0,2.5,ID,226 Broadway Ave,1,43.6086549,-116.1926999269,'no',True,True,True,True,UFa2v-FmElnYeD4tnMz5aQ,83702,13
Boise,Taco Bell,12:0-22:0,12:0-22:0,12:0-22:0,12:0-22:0,12:0-22:0,12:0-22:0,12:0-22:0,2,ID,1420 Broadway,1,43.595406,-116.193503,u'no',True,True,True,True,7zzSq-37WyMeSRrN8-zd6Q,83706,54
Lumberton,Burger King,6:0-0:0,6:0-0:0,6:0-0:0,6:0-0:0,6:0-20:0,9:0-21:0,6:0-0:0,2,NJ,1636 Nj-38,1,39.9798310904,-74.7833065689,NA,NA,True,True,True,EdW9vZanqh-fS8trtecDYg,08048,12
Santa Barbara,Subway,10:0-18:0,10:0-18:0,10:0-18:0,10:0-18:0,10:0-18:0,11:0-18:0,11:0-18:0,2.5,CA,"1021 State St, Ste A",0,34.4218892,-119.7027782,NA,NA,True,True,True,9JR9Ht6IX1r2jPPG689JyA,93101,18
Bryn Mawr,McDonald's,0:0-0:0,0:0-0:0,0:0-0:0,0:0-0:0,0:0-0:0,0:0-0:0,0:0-0:0,1.5,PA,1257 Lancaster Ave,1,40.026761,-75.328401,u'free',True,True,True,True,W0JwMDaPz4KxJPqiUuh45A,19010,74
Land O' Lakes,KFC,11:0-21:0,11:0-21:0,11:0-21:0,11:0-21:0,11:0-21:0,11:0-21:0,11:0-21:0,2,FL,21617 Village Lakes Shopping Ctr,1,28.1900820285,-82.4586819464,'no',True,True,True,False,sDbsELyAdRlpAs8vpQeKWQ,34639,29
Tucson,Pizza Hut,10:30-23:0,10:30-23:0,10:30-23:0,10:30-23:0,10:30-0:0,10:30-0:0,10:30-23:0,3,AZ,4710 E Speedway Blvd,1,32.2358495215,-110.8916858,'no',NA,True,True,True,VF2PtrstMeasOK_4d4VHVA,85712,22
Philadelphia,Checkers,10:0-0:0,10:0-0:0,10:0-0:0,10:0-0:0,10:0-1:0,10:0-1:0,10:0-0:0,1.5,PA,9173 Roosevelt Boulevard,1,40.0752499144,-75.0323500112,'free',True,True,True,True,OL9CgTWy7rU2eNq6F13JBg,19114,14
New Port Richey,KFC,10:30-23:0,10:30-23:0,10:30-23:0,10:30-23:0,10:30-0:0,10:30-0:0,10:30-23:0,1.5,FL,8242 Little Rd,1,28.2771645,-82.673909,'free',True,True,True,False,0xe81EigRw_b5W8tg0Ca6Q,34654,19
Indianapolis,Pizza Hut,16:0-21:0,16:0-21:0,16:0-21:0,16:0-21:0,16:0-22:0,16:0-22:0,16:0-21:0,2,IN,2105 N Mitthoeffer Rd,1,39.7971751,-85.9901685,'free',NA,True,True,True,42IIF87kg1Ay4AeS6r9SOQ,46229,19
Plainfield,Chipotle Mexican Grill,0:0-0:0,11:30-21:0,11:30-20:0,11:30-21:0,11:30-21:0,11:30-21:0,11:30-21:0,3,IN,350 S Perry Rd,1,39.713921,-86.355953,NA,False,True,True,True,UCCc31J4N8Y57RuzmInjyw,46168,35
Arnold,Raising Cane's Chicken Fingers- Arnold,10:0-23:0,10:0-23:0,10:0-23:0,10:0-23:0,10:0-0:0,10:0-0:0,10:0-23:0,3.5,MO,1163 Jeffco Blvd,1,38.4403418,-90.3734194,'no',True,False,True,True,jz-A6Gq1pM-esuAEKqqSqQ,63010,26
Boise,Five Guys,0:0-0:0,11:0-22:0,11:0-22:0,11:0-22:0,11:0-16:0,11:0-22:0,11:0-22:0,2.5,ID,321 S 8th St,1,43.6139398936,-116.2053884805,u'no',NA,True,True,True,MYMLQfzRv8x7aO-bv9vpFg,83702,36
Hudson,McDonald's,0:0-0:0,0:0-0:0,0:0-0:0,0:0-0:0,0:0-0:0,0:0-0:0,0:0-0:0,2.5,FL,9441 St Rd 52,1,28.3316185901,-82.6584090292,u'free',True,True,True,True,CxoRg-ZcXdpqXWmUJliYog,34669,28
Saint Louis,Panda Express,11:0-19:0,11:0-17:0,11:0-19:0,11:0-19:0,11:0-19:0,11:0-19:0,11:0-19:0,3.5,MO,"1155 St. Louis Galleria, FC-5",1,38.636278,-90.348028,'free',True,True,True,False,la1k3Qq-cUBZrTXyElb8QA,63117,7
Indianapolis,Subway,0:0-0:0,9:0-21:0,9:0-21:0,9:0-21:0,9:0-21:0,9:0-21:0,9:0-20:0,2.5,IN,"5868 E 71st St, Ste A, Ste A Binford Shoppes",1,39.8843597233,-86.0679047452,NA,True,True,True,False,wXBAAafoiZ4Nty2ajuBtfw,46220,11
Philadelphia,The Fat ChickeN,11:0-22:0,11:0-22:0,11:0-22:0,11:0-22:0,11:0-22:0,12:0-22:0,12:0-21:0,4.5,PA,2355 S Bucknell St,0,39.9227051442,-75.1861358061,NA,NA,True,NA,NA,-LmhsdQproqCf5EQoD06rQ,19145,10
Tampa,Wendy's,6:30-1:0,6:30-1:0,6:30-1:0,6:30-1:0,6:30-2:0,6:30-2:0,6:30-1:0,2.5,FL,8305 Sheldon Road,1,28.0236,-82.5826138,'free',NA,True,True,True,LRGbuufLJqxsDYsY7_Gx6A,33615,13
Saint Charles,Fazoli's,10:30-22:0,10:30-22:0,10:30-22:0,10:30-22:0,10:30-22:0,10:30-22:0,10:30-22:0,2.5,MO,1698 Country Club Plaza Dr,1,38.7687386424,-90.5228420951,u'no',NA,True,True,True,-K_FDDqmOt6hJLTOPgpnlA,63303,32
Gilbertsville,Taco Bell,8:0-22:30,8:0-22:30,8:0-22:30,8:0-22:30,8:0-22:30,8:0-22:30,8:0-22:30,2.5,PA,1101 E. Philadelphia Avenue,1,40.323843,-75.617467,u'free',True,True,True,True,uNZvfcpwTNVxyPe9i1m90g,19525,16
Fishers,McDonald's,5:0-1:0,5:0-1:0,5:0-1:0,5:0-1:0,5:0-1:0,5:0-1:0,5:0-1:0,2,IN,9611 N By Ne Blvd,1,39.9276258761,-86.0256541474,u'free',True,True,True,True,2gTnSpYBmg_5JubGpCtSQQ,46038,41
Harahan,Five Guys,0:0-0:0,11:0-22:0,11:0-22:0,11:0-22:0,11:0-16:0,11:0-22:0,11:0-22:0,3.5,LA,1212 S Clearview Pkwy,1,29.9599745904,-90.1852179534,u'no',False,True,True,True,d91RHJeZE-I7TaeQdBp6MQ,70123,89
Isla Vista,Red Pepper Chinese Food Express,11:0-21:0,11:0-21:0,11:0-21:0,11:0-21:0,11:0-21:0,11:0-21:0,11:0-21:0,3.5,CA,"966 Embarcadero Del Mar, Apt C",1,34.411727,-119.8567951,NA,NA,NA,NA,NA,SOl2m-ZsAmnCuQGdMZeANQ,93117,5
Claymont,McDonald's,0:0-0:0,0:0-0:0,0:0-0:0,0:0-0:0,0:0-0:0,0:0-0:0,0:0-0:0,1.5,DE,2702 Philadelphia Pike,1,39.794113,-75.4673805,'free',True,True,True,False,59fWFpyDg01BTEH-Hh6jdw,19703,25
Greenwood,Wang Cai,16:0-21:30,11:0-21:30,11:0-21:30,11:0-21:30,11:0-22:30,11:0-22:30,11:0-21:30,3.5,IN,209 S State Rd 135,1,39.6126787,-86.1575896,NA,NA,True,True,NA,yPzni14snM06Kk5xLy6e6w,46142,31
Exton,KFC,10:30-0:0,10:30-0:0,10:30-0:0,10:30-0:0,10:30-0:0,10:30-0:0,10:30-0:0,1.5,PA,104 N Pottstown Pike,1,40.0288224113,-75.629475,'free',True,True,True,True,a8Q2bvUW6mAiws7xW7cS6g,19341,45
Tampa,Checkers,10:0-3:0,10:0-3:0,10:0-3:0,10:0-4:0,10:0-5:0,10:0-5:0,10:0-3:0,1.5,FL,107 W Waters Ave,1,28.0257155,-82.4598851,NA,True,True,True,True,7BdU02Hf1QQx5YE3WYGcxQ,33604,13
Odessa,Capriotti's Sandwich Shop,10:0-21:0,10:0-21:0,10:0-21:0,10:0-21:0,10:0-21:0,10:0-21:0,10:0-21:0,4,FL,12267 St Rd 54,1,28.19161,-82.6132195,NA,NA,True,NA,True,9UVFBNXegnoW9oIfj5p7Kg,33556,28
Bristol,Chuck's BBQ,NA,NA,NA,12:30-20:30,11:30-22:0,11:30-22:0,NA,3,PA,2 Pond St,1,40.0959133,-74.8593254,u'no',NA,True,True,NA,PEs5kilsGdB31jSt84ItuA,19007,36
Goleta,The Original Habit Burger Grill,0:0-0:0,10:30-21:0,10:30-21:0,10:30-21:0,10:30-21:0,10:30-21:0,11:0-20:0,4,CA,5735 Hollister Ave,1,34.4355701009,-119.8247056485,u'no',True,True,True,True,bbEXAEFr4RYHLlZ-HFssTA,93117,329
Fairless Hills,McDonald's,5:30-23:0,5:30-23:0,5:30-23:0,5:30-23:0,5:30-0:0,5:30-0:0,5:30-23:0,1.5,PA,475 S Oxford Valley Rd,1,40.171540527,-74.8515835404,u'free',True,True,True,True,zSEqhlaHqY8sIDxznturEQ,19030,32
Indianapolis,Arby's,NA,NA,NA,NA,NA,NA,NA,3,IN,35 E 96th St,1,39.9265862,-86.1564567,NA,True,True,True,True,Dl3aL50yuZmP1d4ucjHQWA,46240,16
Levittown,Subway,8:0-21:0,8:0-21:0,8:0-21:0,8:0-21:0,8:0-21:0,7:0-21:0,7:0-21:0,2,PA,180 Levittown Pkwy,1,40.1493823,-74.8239491,NA,NA,True,NA,NA,KE_oM4y1GMI3YMOnnqHqRQ,19056,5
Nashville,Jack in the Box,0:0-0:0,0:0-0:0,0:0-0:0,0:0-0:0,0:0-0:0,0:0-0:0,0:0-0:0,2,TN,5615 Charlotte Pike,1,36.1496176,-86.8584106,u'no',True,True,True,True,HKbRmIZDRqeC6obLG0k_DQ,37209,32
Reno,Chick-fil-A,0:0-0:0,8:0-22:0,8:0-22:0,8:0-22:0,8:0-21:0,8:0-19:0,NA,4,NV,6365 S McCarran Blvd,1,39.4773506,-119.7921455,'free',True,True,True,True,ugNplY4SZqIfP417oUxahQ,89509,256
Indianapolis,KFC,10:30-22:0,10:30-22:0,10:30-22:0,10:30-22:0,10:30-22:0,10:30-22:0,10:30-22:0,2,IN,3704 W Washington St,1,39.7613281,-86.2236709,'free',True,True,True,True,iaW0dgrW_Y5-FSTV8axNOA,46241,14
Philadelphia,McDonald's,0:0-0:0,0:0-0:0,0:0-0:0,0:0-0:0,0:0-0:0,0:0-0:0,0:0-0:0,1,PA,710 Adams Ave,1,40.0323183,-75.106562376,u'free',True,True,True,True,6jNFUIKiCCKnLCpGJpkyrg,19124,22
Belleville,Arby's,NA,NA,NA,NA,NA,NA,NA,2.5,IL,5790 Belleville Crossing St,1,38.523756,-90.031249,NA,True,True,NA,NA,VPZk3uYLXAc1pn3XDjWQVw,62226,7
Edmonton,Crepe Works,NA,NA,NA,NA,NA,NA,NA,2.5,AB,8882 170 Street,1,53.52272,-113.619954,'no',NA,NA,NA,NA,c7h5S5Oqz3wq3KufxUlmtQ,T5T 3J7,14
Green Valley,Taco Bell,7:0-23:0,7:0-23:0,7:0-23:0,7:0-23:0,7:0-23:0,7:0-23:0,7:0-23:0,3.5,AZ,80 W Duval Mine Rd,1,31.90552,-110.98834,'no',True,True,True,True,BvQ02tI-7gVAfQwHe_U3bA,85614,18
Indianapolis,Subway,0:0-0:0,10:0-20:0,10:0-20:0,10:0-20:0,10:0-20:0,10:0-20:0,11:0-19:0,2,IN,1634 E 10th St,1,39.7816290917,-86.1304205477,'no',True,True,True,True,1QtF1bFgzG3Jo0-L4kv0Cg,46201,11
Brandon,Firehouse Subs,0:0-0:0,10:30-21:0,10:30-21:0,10:30-21:0,10:30-16:0,10:30-21:0,10:30-21:0,2.5,FL,1921 W Brandon Blvd,1,27.9367861,-82.3150592,'no',NA,True,True,True,EFPLTyrqx_x_6GVaDU5Mtw,33511,35
Fishers,Wendy's,10:0-0:0,10:0-0:0,10:0-0:0,10:0-0:0,10:0-0:0,10:0-0:0,10:0-0:0,1.5,IN,8921 East 116Th Street,1,39.9564086,-86.0117188,'free',NA,True,True,True,DOydgEG9DzmM74QSz4btFA,46038,51
Tucson,Little Caesars Pizza,10:30-23:0,10:30-23:0,10:30-23:0,10:30-23:0,10:30-0:0,10:30-0:0,10:30-23:0,1.5,AZ,"515 E Grant #171, Ste 171",1,32.2510235,-110.9630046,'no',NA,True,True,False,7-cD0S7vJlUOuTpF2vQLOQ,85705,11
Goleta,Jack in the Box,0:0-0:0,0:0-0:0,0:0-0:0,0:0-0:0,0:0-0:0,0:0-0:0,0:0-0:0,1.5,CA,6875 Hollister Ave,1,34.4298966,-119.8687832057,u'no',True,True,True,True,Wy8Hswf2cLQGRZN6armkag,93117,86
St Louis,Captain D's,0:0-0:0,10:30-21:0,10:30-21:0,10:30-21:0,10:30-18:0,10:30-21:0,10:30-21:0,2.5,MO,920 S Grand Blvd,1,38.6262167146,-90.2363026142,u'no',NA,True,True,True,WXxZigTHz0ap8JXVCEEepA,63103,22
New Orleans,Pizza Hut,11:0-21:0,11:0-21:0,11:0-21:0,11:0-21:0,11:0-21:0,11:0-21:0,11:0-21:0,2,LA,2077 Caton St,1,29.9995993472,-90.0622879132,NA,NA,True,True,NA,KSTWGtRlYowMIuFspfvAFg,70122,17
Springfield,QDOBA Mexican Eats,11:0-21:0,11:0-21:0,11:0-21:0,11:0-21:0,11:0-20:0,12:0-21:0,11:0-21:0,3.5,PA,1054 Baltimore Pike,1,39.9145256557,-75.3438321455,u'free',False,True,True,True,OEzYP44ER97a1hi4LgR6bA,19064,44
Nashville,Hugh-Baby's,0:0-0:0,11:0-21:0,11:0-21:0,11:0-15:0,11:0-21:0,11:0-21:0,11:0-21:0,4,TN,975 Main St,1,36.178233,-86.75215783,NA,NA,True,NA,NA,_Qq76wygutgcUER6QN1Ffw,37206,18
Edmonton,Tokyo Express,NA,NA,NA,NA,NA,NA,NA,2.5,AB,5220 23rd Avenue NW,1,53.4550264,-113.4229759,'free',NA,False,NA,False,-AhpS4MUSdYWg8SwZpV6eA,T6L 6Y7,9
Pinellas Park,Chipotle Mexican Grill,0:0-0:0,10:45-22:0,10:45-22:0,10:45-22:0,10:45-22:0,10:45-22:0,10:45-22:0,3,FL,3700 Park Blvd N,1,27.8388019441,-82.6846666245,'no',NA,True,True,True,9ouyziwYpSvJzlLFpukSgA,33781,88
Tucson,Aqui Con El Nene,9:0-23:0,9:0-23:0,9:0-23:0,9:0-23:0,9:0-1:0,9:0-1:0,NA,4.5,AZ,4415 N Flowing Wells Rd,1,32.28682634,-110.9950735,u'no',NA,True,False,True,LQcGL4hfJAeK6bk2ZdhmXw,85705,322
Millstadt,Subway,9:0-20:0,9:0-20:0,9:0-20:0,9:0-20:0,9:0-20:0,9:0-20:0,9:0-20:0,1.5,IL,101 W Washington,1,38.4616615265,-90.0929554558,NA,NA,False,True,True,0bzkJPZaxJI0aWh20ayBJQ,62260,6
Upper Darby,Wendy's,10:0-3:0,10:0-3:0,10:0-3:0,10:0-3:0,10:0-3:0,10:0-3:0,10:0-3:0,2,PA,6900 Walnut Street,1,39.9562148,-75.2582743,NA,NA,True,True,False,cpsKyZKCLpTMmu0YQsbIsg,19082,24
Saint Charles,Taco Bell,10:0-22:0,10:0-22:0,10:0-22:0,10:0-22:0,10:0-22:0,10:0-22:0,10:0-22:0,1.5,MO,620 S. Fifth Street,1,38.778439,-90.488099,NA,True,True,NA,NA,dHOxmu8B_FGEcVa7q0zrTg,63301,25
Boise,Sonic Drive-In,0:0-0:0,7:0-23:0,7:0-23:0,6:0-18:0,8:0-0:0,8:0-0:0,8:0-0:0,2,ID,10480 West Ustick Rd,1,43.6344494317,-116.3128379399,u'no',True,True,True,True,nptxS2jTf6nOQCEcXNL_HA,83704,18
Plant City,Jimmy John's,11:0-21:0,11:0-21:0,11:0-21:0,11:0-21:0,11:0-21:0,11:0-21:0,11:0-21:0,3,FL,2424 James L Redman Pkwy,1,27.9885567,-82.1215138,u'no',True,True,True,NA,pXr5ndDooMsfIxuczExK6A,33566,13
Tucson,eegee's,0:0-0:0,9:30-22:0,9:30-22:0,9:30-22:0,9:30-18:0,9:30-19:0,9:30-22:0,3,AZ,7911 N Oracle Rd,1,32.35043004,-110.9758325,'no',True,True,True,True,zSsdeiHfEnv_EVv8IVqcWg,85704,57
Trinity,Five Guys,0:0-0:0,11:0-22:0,11:0-22:0,11:0-22:0,11:0-16:0,11:0-22:0,11:0-22:0,3,FL,10700 Sr-54,1,28.1930102163,-82.6380369067,u'no',NA,True,True,True,Q_4XtUDxWDasRhORDaC-jw,34655,48
Goleta,Sushiya Express,12:0-21:0,12:0-21:0,NA,12:0-21:0,12:0-21:0,12:0-21:0,12:0-21:0,3.5,CA,955 Embarcadero Del Mar,1,34.41195,-119.857433,u'free',NA,True,True,True,DzpaiMQnB_sNhZPrgdvKHg,93117,163
Indianapolis,Popeyes Louisiana Kitchen,10:0-0:0,10:0-0:0,10:0-0:0,10:0-0:0,10:0-0:0,10:0-0:0,10:0-0:0,2,IN,7615 Pendleton Pike,1,39.8336,-86.03285,u'free',True,True,True,False,ZuYD3r8Kb5IECQC5ufKREQ,46226,27
Philadelphia,Cily Chicken Rice,0:0-0:0,16:0-22:0,NA,16:0-22:0,16:0-23:0,16:0-23:0,16:0-22:0,4.5,PA,933 Race St,1,39.955545,-75.1554729,u'free',NA,True,True,True,z5YxP_jyIU7dRKUA7V_H0w,19107,68
Indianapolis,Dairy Queen,9:30-22:0,9:30-22:0,9:30-22:0,9:30-22:0,9:30-22:0,9:30-22:0,11:0-22:0,2,IN,9008 E 10th St,1,39.7824020708,-86.0082985,NA,True,True,True,True,H-ShuZET0m9IkCv-L9zFXA,46229,9
Norristown,Popeyes Louisiana Kitchen,10:30-20:0,10:30-20:0,10:30-20:0,10:30-20:0,10:30-20:0,11:0-20:0,10:30-20:0,2,PA,215 W Main St,1,40.1159729282,-75.3474167611,u'no',NA,True,True,False,NsbA31abl8CvYFs6P6kpyw,19401,32
Philadelphia,Goldie,0:0-0:0,11:0-15:0,11:0-15:0,11:0-15:0,11:0-15:0,NA,NA,4.5,PA,3401 Walnut St,1,39.953074,-75.192585,NA,False,True,True,True,RXItVN-qOBgbp_vBalAkOw,19104,46
Nashville,Wendy's,7:0-0:0,7:0-0:0,7:0-0:0,7:0-0:0,7:0-1:0,7:0-1:0,7:0-0:0,2,TN,7642 Highway 70 South,1,36.079261,-86.951694,u'no',True,True,True,True,NpIHuh0tMIZ-6EDmmwHvZA,37221,21
St. Louis,Jimmy John's,10:30-21:0,10:30-21:0,10:30-21:0,10:30-21:0,10:30-21:0,10:30-14:0,10:30-14:0,2.5,MO,3822 Laclede Ave,1,38.6356545,-90.2407013,u'no',True,True,True,True,1wC41D8PLqOldFPUVAZ3tA,63108,43
King of Prussia,Naf Naf Grill,0:0-0:0,10:30-20:0,11:0-20:0,11:0-19:0,11:0-19:0,11:0-19:0,11:0-19:0,4,PA,"100 Main St, Ste 160",0,40.0836905029,-75.4040421546,'no',False,True,True,True,UyD7FJamt_pw1V4d00lwjA,19406,197
Gallatin,Zaxby's Chicken Fingers & Buffalo Wings,10:30-21:0,10:30-21:0,10:30-21:0,10:30-21:0,10:30-22:0,10:30-22:0,10:30-21:0,3.5,TN,580 Village Green Dr,1,36.3770014,-86.4736923,u'no',True,True,True,True,FH_LQqNmjiFnvm6vGuXmnQ,37066,12
Fishers,McDonald's,5:0-23:0,5:0-23:0,5:0-23:0,5:0-23:0,5:0-0:0,5:0-0:0,6:0-23:0,1.5,IN,9290 E 131st St,1,39.9795004552,-86.0048751533,u'free',True,True,True,True,QSA-x2bb3kum9QLFpy7vUg,46038,26
Marana,McDonald's,6:30-21:30,6:30-21:30,6:30-21:30,6:30-21:30,5:30-22:30,5:30-22:30,6:30-21:30,2,AZ,8280 N Cortaro Rd,1,32.3562922407,-111.0893377812,'free',True,True,True,True,P0u1f6ea6LsyB8m1CXXyNw,85743,18
Palm Harbor,McDonald's,0:0-0:0,0:0-0:0,0:0-0:0,0:0-0:0,0:0-0:0,0:0-0:0,0:0-0:0,3,FL,3480 E Lake Rd,1,28.0624351131,-82.7060571313,'free',True,True,True,True,6rZkogALtWhE57DpWhK6ow,34685,25
St. Louis,Rally's,10:0-2:0,10:0-2:0,10:0-2:0,10:0-2:0,10:0-4:0,10:0-4:0,10:0-2:0,2,MO,10334 Page Avenue,1,38.6910697,-90.3882907,'no',True,True,True,True,Dr2doMUrV87DKwvDAdCL1w,63132,21
Tampa,Steak ’n Shake,0:0-0:0,0:0-0:0,0:0-0:0,0:0-0:0,0:0-0:0,0:0-0:0,0:0-0:0,2,FL,16201 N Dale Mabry Hwy,0,28.0998832618,-82.5016486,'free',True,True,True,True,R4eAWOt6Kz_rmo8B9FyG8g,33618,77
Wilmington,Walt's Chicken Express,10:30-22:0,10:30-22:0,10:30-22:0,10:30-22:0,10:30-23:0,10:30-23:0,10:30-20:30,4,DE,103 N Lincoln St,1,39.7468586,-75.5734395,'no',NA,True,True,False,o8JeOB8HTa5HYHg6hfqTHw,19805,51
Edwardsville,QuikTrip,0:0-0:0,0:0-0:0,0:0-0:0,0:0-0:0,0:0-0:0,0:0-0:0,0:0-0:0,4.5,IL,2490 Troy Rd,1,38.7817075548,-89.950378011,NA,NA,False,True,NA,0homyPnPv_UhgIFFMpYXJQ,62025,13
Tucson,eegee's,0:0-0:0,9:30-22:0,9:30-22:0,9:30-22:0,9:30-18:0,9:30-19:0,9:30-22:0,3.5,AZ,1209 W St Mary's Rd,1,32.22942105,-110.9905687,'no',True,True,True,True,gGCIGJcKWoPC9xZNDeX3pA,85745,39
Saint Louis,Subway,7:0-21:0,7:0-21:0,7:0-21:0,7:0-21:0,7:0-21:0,7:0-21:0,9:0-21:0,2.5,MO,122 S County Center Way,0,38.5040382,-90.3291302,NA,NA,False,NA,NA,4KPEgM1E7WgQQqd0IAIopg,63129,6
Indianapolis,Burger King,NA,NA,NA,NA,NA,NA,NA,2,IN,6303 East 82nd Street,0,39.9047467,-86.0595402,'no',True,True,True,False,7LHtG34gI4kVOuCiUgTruQ,46250,11
Santa Barbara,Chipotle Mexican Grill,10:30-22:0,10:30-22:0,10:30-22:0,10:30-22:0,10:30-22:0,10:30-22:0,10:30-22:0,3.5,CA,723 State St,0,34.4190289,-119.699083,u'no',NA,False,True,True,fLk_N8vU25DNZmbU-70gkw,93101,57
Nashville,Burger King,8:0-22:0,8:0-22:0,8:0-22:0,8:0-22:0,8:0-22:0,8:0-22:0,8:0-22:0,1.5,TN,2305 Murfreesboro Pike,1,36.0855815467,-86.6486375034,NA,NA,True,True,True,hmzx6ymJcM_kErCHCGhxxg,37217,6
Marlton,Chipotle Mexican Grill,0:0-0:0,10:45-22:0,10:45-22:0,10:45-22:0,10:45-22:0,10:45-22:0,10:45-22:0,2,NJ,"882 Route 73 N, Ste A",1,39.906175,-74.936433,NA,NA,True,True,True,2VvIvL-Dyp6QTk0-KfYeDg,08053,22
Ballwin,Firehouse Subs,0:0-0:0,10:30-21:0,10:30-21:0,10:30-21:0,10:30-19:0,10:30-19:0,10:30-19:0,4,MO,14948 Manchester Rd,1,38.5929525,-90.5456403,'no',NA,True,True,True,8sakdo8WkCjhKj3Q4hhvSA,63011,22
Nashville,Subway,7:0-21:30,7:0-21:30,7:0-21:30,7:0-21:30,7:0-21:30,8:0-21:30,9:0-21:0,1.5,TN,3686 Bell Rd,1,36.1512071078,-86.6256467248,'no',NA,True,True,True,wuv3jE5Lc23TcfC70qu-Mg,37214,8
Morton,Popeye's Louisana Kitchen,10:30-18:0,10:30-18:0,10:30-18:0,10:30-18:0,11:0-18:0,11:0-18:0,11:0-17:30,1.5,PA,411 Baltimore Pike,1,39.9172916,-75.331789,NA,NA,True,NA,NA,iJn64rU6vapSp8uTjmshcA,19070,8
Kenner,Burger King,5:30-2:0,5:30-2:0,5:30-2:0,5:30-2:0,5:30-22:0,11:0-2:0,6:0-1:0,1.5,LA,2601 Veterans Memorial Blvd,1,30.0055382373,-90.2322953148,NA,NA,True,True,True,y3RXPIuqr5Q0lId1K9Ai2A,70062,19
Tampa,Popeyes Louisiana Kitchen,10:0-22:30,10:0-22:30,10:0-22:30,10:0-22:30,10:0-23:30,10:0-23:30,10:0-22:0,2,FL,2216 Fletcher Ave,1,28.069558,-82.433814,'no',True,True,True,False,z06yuwkwWjgXAxnlZKg1yw,33612,28
Sparks,Burger King,9:0-15:0,9:0-15:0,9:0-15:0,9:0-15:0,7:0-15:0,9:0-15:0,9:0-15:0,1.5,NV,9700 Pyramid Way,1,39.6390681642,-119.7106055823,'free',NA,True,True,True,Cx3G-kw4kYtlcig8yG7fWw,89441,57
Tucson,Wendy's,10:0-0:0,10:0-0:0,10:0-0:0,10:0-0:0,10:0-0:0,10:0-0:0,10:0-0:0,2,AZ,7675 N. La Cholla Blvd.,1,32.3454644454,-111.0135447675,NA,NA,True,True,True,L5LW_wN6Z0JV_vKe2jnsBw,85741,21
Meridian,Taco Bell,7:0-0:0,7:0-0:0,7:0-0:0,7:0-0:0,7:0-0:0,7:0-0:0,7:0-0:0,1.5,ID,645 S Main St,1,43.59716,-116.39233,'free',True,True,True,True,X8k7N03buo2bBbUUfcAltQ,83642,38
Philadelphia,Wiz Kid,11:0-20:0,11:0-20:0,11:0-20:0,11:0-20:0,11:0-21:0,11:0-21:0,11:0-20:0,4.5,PA,124 S 19th St,0,39.9509958568,-75.1723086834,u'no',False,True,True,False,w9hS5x1F52Id-G1KTrAOZg,19103,163
Indianapolis,Taco Bell,9:0-4:0,9:0-4:0,9:0-4:0,9:0-4:0,9:0-4:0,9:0-4:0,9:0-4:0,2,IN,444 E Thompson Road,1,39.693359,-86.149027,NA,True,True,True,True,tj7aaF1AhAyiepySMHPK3w,46227,23
Speedway,Pizza Hut,11:0-22:0,11:0-22:0,11:0-22:0,11:0-22:0,11:0-22:0,11:0-22:0,11:0-22:0,1.5,IN,6111 Crawfordsville Rd,1,39.7994921703,-86.2674245238,'no',NA,True,True,True,n2HP8fenpzI7eg6TRDj4lw,46224,32
Indianapolis,Dairy Queen Grill & Chill,11:0-22:0,10:30-22:0,10:30-22:0,10:30-22:0,10:30-22:0,10:30-22:0,11:0-22:0,3,IN,5231 E Thompson Rd,1,39.6941240485,-86.07954048,'no',True,True,True,True,EDprNnmwty4XypvqgVZVgg,46237,28
Springfield,Dairy Queen Grill & Chill,10:30-22:0,10:30-22:0,10:30-22:0,10:30-22:0,10:30-22:0,10:30-22:0,10:30-22:0,2.5,TN,2540 Memorial Blvd,1,36.4880525767,-86.8650939269,NA,True,True,True,NA,28XH9UYU-uGajC0Nz5Bwog,37172,7
Clearwater,Skyline Chili,11:0-21:0,11:0-21:0,11:0-21:0,11:0-21:0,11:0-21:0,11:0-21:0,11:0-21:0,4,FL,28798 US Hwy 19 N,0,28.0338251,-82.7391913,u'free',NA,False,True,True,eS4billU3Yd9hoVUFfZFbA,33761,81
Indianapolis,Subway,8:0-21:0,8:0-21:0,8:0-21:0,8:0-21:0,8:0-21:0,10:0-20:30,10:0-20:30,3,IN,"8420 Belfast Dr, Ste 16",1,39.6767013813,-86.3098830231,NA,NA,True,NA,NA,CmDTNEVReN6CgE6ctlZhag,46241,7
Sherwood Park,Joeys Urban,9:30-21:0,9:30-21:0,9:30-21:0,9:30-21:0,9:30-21:0,9:30-17:30,12:0-17:0,4.5,AB,39-2020 Sherwood Drive,1,53.531681,-113.292961,NA,NA,False,NA,NA,W15EwFMmF4I-YPV_HlevYA,T8A 3H9,7
Largo,Arby's,NA,NA,NA,NA,NA,NA,NA,2,FL,12266 Seminole Blvd,1,27.8842992,-82.787684,NA,True,True,True,True,q61niB21oQPmZlO3wsSO7Q,33778,14
Upper Darby,McDonald's,5:30-0:0,5:30-0:0,5:30-0:0,5:30-4:0,0:0-0:0,0:0-0:0,4:0-0:0,1,PA,133 S 69th St,1,39.9573732697,-75.2576498687,NA,True,True,NA,True,eOeKgRKbs-iAsIEOmHTrYg,19082,10
Nashville,Fazoli's,10:30-22:0,10:30-22:0,10:30-22:0,10:30-22:0,10:30-22:0,10:30-22:0,10:30-22:0,3,TN,10 Harding Mall Drive,1,36.0807586,-86.722677,'free',True,True,True,True,u1ELaa77voUfj-2GCOIUmQ,37211,27
Elverson,Roy Rogers,6:0-18:0,6:0-18:0,6:0-18:0,6:0-18:0,6:0-18:0,6:0-18:0,6:0-18:0,2,PA,23 Park Ave,1,40.1215077299,-75.7761088254,NA,NA,True,True,True,DdFfDwu5z7f24pp6e_q2XA,19520,21
Oldsmar,KFC,0:0-0:0,10:0-22:0,10:0-22:0,10:0-21:0,10:0-23:0,10:0-23:0,10:0-22:0,1.5,FL,3144 Tampa Rd,0,28.0494352,-82.69904,u'no',True,True,True,False,rZZ6gtsqBVkpSLoZ9EZ_1A,34677,28
Tucson,Subway,7:0-21:0,7:0-21:0,7:0-21:0,7:0-22:0,7:0-22:0,8:0-21:0,8:0-21:0,3.5,AZ,5443 E 22nd St,0,32.2080223001,-110.876083,NA,NA,None,True,False,s8zQJgjBhlwE-qcGPKnGsQ,85711,8
Broomall,Wendy's,10:0-1:0,10:0-1:0,10:0-1:0,10:0-1:0,10:0-2:0,10:0-2:0,10:0-1:0,1.5,PA,800 Reed Rd,1,39.9591768008,-75.3517154785,NA,NA,True,True,True,r31oH9nLDCLcSqsd3MdT1A,19008,40
Indianapolis,Long John Silver's,10:30-22:0,10:30-22:0,10:30-22:0,10:30-22:0,10:30-23:0,10:30-23:0,10:30-22:0,2.5,IN,3847 W Washington,1,39.7595227,-86.2272436,NA,NA,True,True,NA,eUXPZQSeZVpKHd0aRF3Rsw,46231,8
Reno,Johnny Rockets,11:0-22:0,11:0-22:0,11:0-22:0,11:0-22:0,11:0-23:0,11:0-23:0,11:0-22:0,4,NV,2500 E Second St,1,39.5228351525,-119.7781323604,u'free',False,True,True,True,ySSOZ_fz7wMhfjhWKzdR-w,89595,520
Troy,Taco Bell,9:0-0:0,9:0-0:0,9:0-0:0,9:0-0:0,9:0-1:0,9:0-1:0,9:0-0:0,2,IL,908 Edwardsville Road,1,38.732182,-89.899187,'free',True,True,True,True,M4vYPpkKcPxfZvebDv0ugg,62294,10
Upper Darby,McDonald's,0:0-0:0,0:0-0:0,0:0-0:0,0:0-0:0,0:0-0:0,0:0-0:0,0:0-0:0,1.5,PA,1891 S State Rd,1,39.9597931076,-75.2875122428,u'free',True,True,True,True,RPLPto1ejkyE8vsGOV5phg,19082,27
Sparks,Taco Bell,11:0-19:0,11:0-19:0,11:0-19:0,11:0-19:0,9:0-22:0,9:0-22:0,11:0-19:0,2,NV,200 East Prater Way,1,39.5420749487,-119.7391727759,u'no',True,True,True,True,w18LqIckdMOK7-PU49KBsQ,89431,71
Reno,Wendy's,7:0-21:0,7:0-21:0,7:0-21:0,7:0-21:0,7:0-21:0,8:0-21:0,8:0-21:0,1.5,NV,"4997 Longley Lane, Ste 4",1,39.4775312,-119.7651445,'no',True,True,True,False,_TANOcxwIOmQhk1mnXaj7w,89502,51
New Orleans,Burger King,6:0-12:0,6:0-12:0,6:0-12:0,6:0-12:0,6:0-20:0,10:0-20:0,6:0-21:0,1.5,LA,6332 Elysian Fields Ave,1,30.0237812,-90.0617765,'free',NA,True,True,True,kvE2BJp9Rc8irEnbjnlNHA,70122,11
Indianapolis,Taco Bell,7:0-1:0,7:0-1:0,7:0-1:0,7:0-1:0,7:0-2:0,7:0-2:0,7:0-1:0,2,IN,6327 E 82nd St,1,39.905167,-86.059453,'free',True,True,True,True,_AqS7hNIQra2bsZRgVs-kQ,46250,48
Indianapolis,Subway,9:0-21:0,9:0-21:0,9:0-21:0,9:0-21:0,9:0-21:0,10:0-20:0,10:0-15:30,3.5,IN,"5650 W 86th St, Ste 132",1,39.9122513624,-86.2617752892,NA,NA,True,True,True,31s1x27DnN2V-ptUWEdfTQ,46278,7
Glassboro,The Cheesesteak Factory,16:0-2:0,16:0-2:0,16:0-2:0,16:0-4:0,16:0-4:0,16:0-4:0,16:0-2:0,1.5,NJ,524 Delsea Dr N,0,39.7150427,-75.1117896,'no',NA,True,True,True,3LnezhNbL_Arcs2ihIRL_Q,08028,20
Cherry Hill,McDonald's,5:30-0:0,5:30-0:0,5:30-0:0,5:30-0:0,5:30-0:0,5:30-0:0,5:30-0:0,1,NJ,24 W Marlton Pike,1,39.9147636602,-75.0127789378,u'free',True,True,True,NA,-7Rx5jVeQmlVoAU_oXrzew,08034,11
Jefferson,Chick-fil-A,0:0-0:0,6:0-21:0,6:0-21:0,6:0-21:0,6:0-22:0,6:0-15:30,NA,3,LA,1141 S Clearview Pkwy,1,29.9614416,-90.1836644,'free',True,True,True,True,KOAz86HXkNKNvEExrGXxlQ,70121,77
New Port Richey,Pizza Hut,11:0-23:0,11:0-23:0,11:0-23:0,11:0-23:0,11:0-0:0,11:0-0:0,11:0-23:0,2,FL,7213 County Road 54,1,28.217507,-82.695356,u'no',NA,True,True,True,SFafZpcCcjO28VzimGmKrQ,34653,26
Florissant,A&W Restaurant,10:30-21:0,10:30-21:0,10:30-21:0,10:30-21:0,10:30-22:0,10:30-22:0,10:30-21:0,2,MO,1230 Graham Rd,1,38.777874,-90.3344,NA,True,True,True,True,gkNFqSreKexZxC0BTqS4uw,63031,10
Wood River,Goldy's Chick - n - Mex,11:0-21:0,11:0-21:0,11:0-21:0,11:0-21:0,11:0-21:0,11:0-21:0,11:0-21:0,3,IL,1800 Vaughn Rd,0,38.8665091,-90.0677281,NA,True,NA,True,True,2QrTmKpuNBkOptbwK8NMKA,62095,10
Wilmington,Subway Restaurants,9:0-21:0,9:0-21:0,9:0-21:0,9:0-21:0,9:0-21:0,9:0-21:0,9:0-20:0,2.5,DE,1710 Marsh Rd,0,39.801018,-75.5060555,NA,NA,NA,True,False,O1gJVygW6UVgKCpErmYZfw,19810,7
Florissant,Taco Bell,7:0-2:0,7:0-2:0,7:0-2:0,7:0-2:0,7:0-2:0,7:0-2:0,7:0-2:0,2,MO,1491 Dunn Road,1,38.772983,-90.306177,'free',True,True,True,True,BTtQdwXZT8c5QvKrz3QI5Q,63033,9
Nashville,Sonic Drive-In,0:0-0:0,6:0-21:0,6:0-21:0,6:0-16:0,6:0-16:0,6:0-21:0,6:0-21:0,3,TN,6308 Charlotte Pike,1,36.1455565,-86.872195,'no',True,True,True,True,8F6OsZYrl3LbR17teMJWJQ,37209,20
Indianapolis,Jimmy John's,11:0-22:0,11:0-22:0,11:0-22:0,11:0-22:0,11:0-22:0,11:0-22:0,11:0-22:0,2.5,IN,2402 N Meridian St,1,39.8005401,-86.1570927,u'no',True,True,True,True,YwxnKaMrUVtBygE8kagsVw,46208,21
Wilmington,Subway,9:30-20:0,9:30-20:0,9:30-20:0,9:30-20:0,10:0-17:0,10:0-20:0,10:0-19:0,1,DE,"4721 Kirkwood Hwy, Unit  5",1,39.7225838297,-75.6624078155,NA,NA,True,True,False,Q4OTSH9DaoeqtYcg6qYtZg,19808,5
Philadelphia,McDonald's,0:0-0:0,0:0-0:0,0:0-0:0,0:0-0:0,0:0-0:0,0:0-0:0,0:0-0:0,2,PA,5945 Woodland Ave,1,39.9307946183,-75.2276433154,NA,True,True,True,True,iJOwwuhHP_0BCHmpmJ8l4Q,19143,15
Tucson,Burger King,6:0-23:0,6:0-23:0,6:0-23:0,6:0-22:0,6:0-20:0,9:0-21:0,NA,1.5,AZ,2402 N Alvernon Way,1,32.251002044,-110.909460783,'free',NA,True,True,False,-v0JE4wW_4Xs6C3WT2XgDA,85712,21
Collinsville,QDOBA Mexican Eats,10:30-22:0,10:30-22:0,10:30-22:0,10:30-22:0,10:30-20:0,10:30-22:0,10:30-21:0,3,IL,1100 Collinsville Crossing Blvd,1,38.677024,-90.0153666,NA,False,True,True,True,tBnPLFSvHuyNgurZGN8dYg,62234,19
Goodlettsville,KFC,10:0-22:0,10:0-22:0,10:0-22:0,10:0-22:0,10:0-22:0,10:0-22:0,10:0-22:0,2,TN,314 Long Hollow Pike,1,36.3263940784,-86.7010495344,'free',True,True,True,NA,NPXrueyhHya5Q00GR3rzHQ,37072,7
New Orleans,McDonald's,0:0-0:0,0:0-0:0,0:0-0:0,0:0-0:0,0:0-0:0,0:0-0:0,0:0-0:0,2,LA,4240 Louisa St,1,30.0042438706,-90.0364068849,'free',True,True,True,True,-9yzQQ0d_rcOD2CzdTNO_Q,70126,20
Gallatin,Dairy Queen Grill & Chill,10:30-21:0,10:30-21:0,10:30-21:0,10:30-21:0,10:30-22:0,10:30-22:0,10:30-21:0,3.5,TN,672B Nashville Pike,1,36.3819287906,-86.4623352885,u'free',True,True,True,True,2xd4949uITOmsFXOuyCfgg,37066,7
Boise,Jack in the Box,0:0-0:0,0:0-0:0,0:0-0:0,0:0-0:0,0:0-0:0,0:0-0:0,0:0-0:0,1.5,ID,1124 S Vista Ave,1,43.5937796423,-116.213413775,NA,True,True,True,True,Okp9reNh6b53JwtjTlQAdw,83705,18
Saint Louis,Arby's Restaurants,NA,NA,NA,NA,NA,NA,NA,2.5,MO,4021 Lindell Blvd,1,38.639909,-90.2437806,'free',NA,True,True,True,kBDcEKcbWcPn_MQewb5mJg,63108,13
Tampa,McDonald's,0:0-0:0,0:0-0:0,0:0-0:0,0:0-0:0,0:0-0:0,0:0-0:0,0:0-0:0,2,FL,4818 S Manhattan,1,27.8945234966,-82.517929594,u'free',True,True,True,True,nROgQ9JIN0sjv-i5R1rHcA,33611,21
Caseyville,McDonald's,0:0-0:0,0:0-0:0,0:0-0:0,0:0-0:0,0:0-0:0,0:0-0:0,0:0-0:0,1.5,IL,1 Rauckman Dr,1,38.6131177,-90.0457877,u'free',True,True,True,False,5D-Gjagh385iopO3xqjjIQ,62232,37
Carmel,Panda Express,10:30-21:0,10:30-21:0,10:30-21:0,10:30-21:0,10:30-21:30,11:0-21:30,11:0-20:30,3,IN,"1430 West Carmel Drive, Suite 100",1,39.9719092,-86.1542703,'no',False,True,True,True,q2cgYLHKRaujrQgSnqJPTA,46032,39
Edmonton,McDonald's,5:0-21:0,5:0-21:0,5:0-21:0,5:0-21:0,5:0-21:0,5:0-21:0,5:0-21:0,1.5,AB,12350 118th Avenue,1,53.570705,-113.5354858,NA,True,True,True,True,ZznSNkRERGH8l-wSFJKsEA,T5L 5G8,11
Tucson,McDonald's,4:30-0:0,4:30-0:0,4:30-0:0,4:30-0:0,4:30-0:0,4:30-0:0,4:30-0:0,1.5,AZ,2130 W River Rd,1,32.3057217,-111.0128118,u'free',True,True,True,True,ksma5FPvWkaZvcwHz_bZPA,85704,25
Brownsburg,Dairy Queen Grill & Chill,0:0-0:0,10:30-21:0,10:30-21:0,10:30-21:0,10:30-21:30,10:30-21:30,10:30-21:0,2,IN,705 E Main,1,39.8395709,-86.3857340813,u'no',True,True,True,True,m98Pb-RE755HFPTr2_wwyw,46112,13
Franklin,Hardee's,5:0-21:0,5:0-21:0,5:0-21:0,5:0-21:0,5:0-21:0,5:0-21:0,6:0-21:0,4,TN,1315 Murfreesboro Rd,1,35.9152377753,-86.8264749982,NA,True,True,True,True,t3ax_AGHIqYuaTsQXMF2zg,37064,16
South Cinnaminson,Five Guys,0:0-0:0,11:0-22:0,11:0-22:0,11:0-22:0,11:0-16:0,11:0-22:0,11:0-22:0,3.5,NJ,127 G Rte 130 S,1,39.9892797,-75.0092017,u'no',False,True,True,True,Ix9p19oZJOdaIGjU9lElyA,08077,35
Philadelphia,McDonald's,0:0-0:0,0:0-0:0,0:0-0:0,0:0-0:0,0:0-0:0,0:0-0:0,0:0-0:0,1.5,PA,8901 Franford Ave,1,40.0503776775,-75.0094825029,'free',True,True,True,True,fFA6bjWbq724vB1tW4V9pQ,19136,15
Edmonton,McDonald's,5:0-23:0,5:0-23:0,5:0-23:0,5:0-23:0,5:0-23:0,5:0-23:0,5:0-23:0,2.5,AB,6215 199th Street,1,53.4949355039,-113.6646821691,u'free',True,True,True,True,mvJazJqQvm7CO7kykpDptg,T5T 2P4,17
Ballwin,Subway,0:0-0:0,9:0-20:0,9:0-20:0,9:0-20:0,9:0-20:0,9:0-20:0,9:0-20:0,2.5,MO,1362 Big Bend Sq,1,38.5665329826,-90.4970825509,u'no',NA,True,True,False,UQJXnNKl_RHH2t7iuT1fig,63021,13
Florissant,Firehouse Subs,0:0-0:0,10:30-21:0,10:30-21:0,10:30-21:0,10:30-16:0,10:30-21:0,10:30-21:0,3.5,MO,2312 N Hwy 67,1,38.802894,-90.309488,NA,False,True,True,True,8Y351Po7M4RcJxFvI8zP6g,63033,18
Chadds Ford,Farmer's Road Drive Thru,NA,NA,NA,NA,NA,NA,NA,3,PA,210 Wilmington Pike,0,39.875321,-75.555348,u'no',NA,NA,NA,NA,gu5g3PsEqzBypDUjHF4m7A,19317,10
Tucson,Blake's Lotaburger,0:0-0:0,6:0-22:0,6:0-22:0,6:0-22:0,6:0-18:0,9:0-22:0,7:0-22:0,2,AZ,3560 N Craycroft,1,32.271809,-110.874431,'free',True,True,True,True,KPI0trKirkXDT8oroNfq3g,85750,69
New Orleans,Raising Cane's Chicken Fingers,10:0-21:0,10:0-21:0,10:0-21:0,10:0-21:0,10:0-21:0,10:0-21:0,10:0-19:0,4,LA,"500 Port Of New Orleans Pl, Ste FC242",1,29.944002,-90.06213,'free',True,False,True,True,5uTEok3Z0YICni8NxeDZXw,70130,36
Greenwood,Subway,9:0-22:0,9:0-22:0,9:0-22:0,9:0-22:0,9:0-20:0,9:0-22:0,9:0-22:0,3.5,IN,"2710 Suites D & E S Sr 135, Lot 1",1,39.5771231618,-86.1597956,'no',NA,True,True,True,qpIpYSzySrqNmPWEPNplug,46143,6
Brandon,Jersey Mike's Subs,0:0-0:0,10:0-21:0,10:0-21:0,10:0-18:0,10:0-18:0,10:0-21:0,10:0-21:0,3,FL,977 E Bloomingdale Ave,1,27.893705,-82.269377,NA,NA,True,NA,NA,1p3trZSHZqVsk2uu3WAJow,33511,6
Nashville,Taco Bell Cantina,10:0-1:45,10:0-1:45,10:0-1:45,10:0-1:45,10:0-2:45,10:0-2:45,10:0-1:45,2.5,TN,131 2nd Ave N,1,36.1627241773,-86.776014,NA,NA,True,NA,NA,xB2NmS0JG1Vgy7dK2ftcwQ,37201,26
St.Rose,Wendy's,5:30-1:0,5:30-1:0,5:30-1:0,5:30-1:0,5:30-1:0,6:30-1:0,7:0-1:0,1.5,LA,100 James Park West,1,29.9785055508,-90.2848291397,NA,NA,True,True,True,SvKPvahr8Q8nLE0hNI6q9g,70087,11
Newark,Baja Fresh,10:0-19:0,10:0-19:0,10:0-19:0,10:0-21:0,10:0-21:0,10:0-21:0,10:0-19:0,2.5,DE,"530 Jfk Memorial Hwy, # I-95, Delaware Welcome Center",0,39.6621864,-75.6911421,u'no',False,False,True,True,i2qrXvLkhyG4xyRI-ddcZA,19702,17
Goleta,In-N-Out Burger,0:0-0:0,10:30-1:0,10:30-1:0,10:30-23:0,0:0-23:0,10:30-1:30,10:30-1:0,4,CA,4865 Calle Real,1,34.442941,-119.790779,u'no',True,True,True,True,CYwC5OjwCN6ib_AQDxi3Ow,93111,228
Brentwood,Popeyes Louisiana Kitchen,10:0-22:0,10:0-22:0,10:0-22:0,10:0-22:0,10:0-23:0,10:0-23:0,10:0-22:0,2,MO,8100 Manchester Rd,0,38.6114333852,-90.3367999215,'no',NA,True,True,True,mcwiecpP3n5ED-8xKF5_1A,63144,75
Tampa,Moe's Southwest Grill,10:0-22:0,10:0-22:0,10:0-22:0,10:0-22:0,10:0-22:0,10:0-22:0,11:0-21:0,2.5,FL,2543 N Dale Mabry Hwy,1,27.9640115507,-82.5042694612,'no',NA,True,True,True,MyON48Q_Ql9IjLc0PPXLDQ,33607,64
Westwego,Taco Bell,10:30-22:0,10:30-22:0,10:30-22:0,10:30-22:0,10:30-23:0,10:30-23:0,10:30-22:0,2,LA,1001 Westbank Expressway,1,29.89804,-90.141068,'no',True,True,True,True,_xEomLz1UfKjn3-S1LYS8g,70094,8
Cahokia,Rally's,10:0-3:0,10:0-3:0,10:0-3:0,10:0-3:0,10:0-4:0,10:0-4:0,10:0-3:0,1.5,IL,1600 Camp Jackson Road,1,38.5540526,-90.166927,u'no',NA,True,True,False,q1LlkxzJ1VEzKedgPrcDlw,62206,5
Santa Barbara,Yoshinoya,10:0-16:30,10:0-16:30,10:0-16:30,10:0-16:30,10:0-16:30,NA,NA,3,CA,552 University Road,1,34.415142,-119.840629,u'free',True,False,True,True,cVW9b_1bqsvTU1jhGNWUsw,93106,9
Clearwater,Red Robin Gourmet Burgers and Brews,11:0-21:0,11:0-21:0,11:0-21:0,11:0-21:0,11:0-21:0,11:0-21:0,11:0-21:0,3.5,FL,"27001 US Hwy 19 N, Ste 1130",1,28.016693,-82.734672,u'no',False,True,True,True,radib3GHt_Up9-zhUjM1ew,33761,175
Creve Coeur,Jet's Pizza,0:0-0:0,10:0-22:0,10:0-22:0,10:0-22:0,10:0-23:0,10:0-23:0,11:0-22:0,3.5,MO,12536 Olive Blvd,1,38.6761497706,-90.4642260075,u'no',False,True,True,True,tEo47ZH3WGeZstWpZp6bfA,63141,41
Nashville,McDonald's,0:0-0:0,0:0-0:0,0:0-0:0,0:0-0:0,0:0-0:0,0:0-0:0,0:0-0:0,1,TN,331 Harding Pl,1,36.0862588835,-86.6949382878,'free',True,True,True,True,wCWtAobVuZ0N7XJTb1ugGA,37211,13
New Orleans,Subway,7:0-17:0,7:0-17:0,7:0-17:0,7:0-17:0,7:0-17:0,10:0-15:0,10:0-15:0,3,LA,204 St Charles Ave,0,29.95198515,-90.0696791408,NA,NA,False,True,True,DfkO7MHuy2wxgeUZ2-o3BA,70130,8
Fenton,QDOBA Mexican Eats,10:30-22:0,10:30-22:0,10:30-22:0,10:30-22:0,10:30-20:0,10:30-22:0,10:30-21:0,2.5,MO,"180 Gravois Bluffs Cir, Ste D",1,38.5027289,-90.4449844,'free',NA,True,True,True,kGNzqiYKDns-IU80uHF4sw,63026,30
Ewing,Taco Bell,8:0-1:0,8:0-1:0,8:0-1:0,8:0-1:0,8:0-2:0,8:0-2:0,8:0-1:0,2.5,NJ,1760 North Olden Avenue,1,40.2487483279,-74.7704231903,NA,True,True,True,True,B6fIXw9UyF06mXmHPMnFwg,08638,30
Ewing,Popeyes Louisiana Kitchen,10:30-0:0,10:30-0:0,10:30-0:0,10:30-1:0,10:30-2:0,10:30-2:0,11:0-0:0,3,NJ,1605 N Olden Avenue Ext,1,40.243546,-74.758751,NA,NA,None,True,True,LHITV6jek0oe17xNhpmKNQ,08638,16
Brentwood,McDonald's,5:0-4:0,5:0-4:0,5:0-4:0,5:0-4:0,5:0-4:0,5:0-4:0,5:0-4:0,2,TN,410 Old Hickory Blvd,1,36.0409200175,-86.7450345308,'free',True,True,True,True,HoXdBq2Puaj69d8z6lgiVw,37211,25
Tampa,Zaxby's Chicken Fingers & Buffalo Wings,11:0-21:0,11:0-21:0,11:0-21:0,11:0-21:0,11:0-21:0,11:0-21:0,12:0-21:0,3,FL,3864 W Waters Ave,1,28.0248379,-82.506782,'no',True,True,True,True,unkGQNCeDkAUOaZAg8HC5w,33614,49
Plant City,Pizza Hut,10:0-23:0,10:0-23:0,10:0-23:0,10:0-23:0,10:0-1:0,10:0-1:0,10:0-23:0,2,FL,2316 James Redman Pkwy,1,27.9902354,-82.1211235,NA,NA,True,True,True,JuiFuyPw2yjWiPpi3HXJ0Q,33563,20
Tucson,Dairy Queen,NA,NA,NA,NA,NA,NA,NA,2.5,AZ,23 W Prince Rd,1,32.2717656,-110.9728961,u'no',True,True,True,NA,n5-1AVcqXiThFojV-eQ_og,85719,19
Saint Louis,McDonald's,NA,NA,NA,NA,NA,NA,NA,1.5,MO,4420 S Broadway,0,38.5754045,-90.2332915,u'no',NA,False,True,False,CGK0IuZi9rvdRyB3oxHMnQ,63111,8
Tampa,KFC,10:30-23:0,10:30-23:0,10:30-23:0,10:30-23:0,10:30-23:0,10:30-23:0,10:30-23:0,1.5,FL,5367 Ehrlich Rd,1,28.0832941602,-82.5424863847,NA,True,True,True,True,uz3bn1LnXUGPteDoHYhcRQ,33625,19
O'fallon,Sonic Drive-In,0:0-0:0,8:0-21:0,8:0-21:0,8:0-21:0,9:0-22:0,8:0-21:0,8:0-21:0,1.5,IL,745 W Highway 50,1,38.5881713,-89.9271964,u'no',True,True,True,True,7KKre8EbV95w_MbYTknCPw,62269,30
La Vergne,Waffle House,0:0-0:0,0:0-0:0,0:0-0:0,0:0-0:0,0:0-0:0,0:0-0:0,0:0-0:0,3.5,TN,108 Enterprise Blvd,1,35.9988587,-86.5977349,NA,NA,False,True,False,r3YMmIxYf-OzLKFtD836Ww,37086,15
Vail,Taco Bell,7:0-0:0,7:0-0:0,7:0-0:0,7:0-0:0,7:0-0:0,7:0-0:0,7:0-0:0,3.5,AZ,13440 E Mary Ann Cleveland Way,1,32.0503100781,-110.7071915491,NA,NA,True,NA,NA,OvSry57xdVkcrNSZdrA8RQ,85641,5
Pinellas Park,KFC,10:30-22:0,10:30-22:0,10:30-22:0,10:30-22:0,10:30-23:0,10:30-23:0,10:30-22:0,2,FL,6595 Park Blvd,1,27.8396878,-82.728184,u'no',True,True,True,True,cLY7TxgdJCiGrD2C8DMEew,33781,37
Collinsville,Hardee's,5:0-22:0,5:0-22:0,5:0-22:0,5:0-22:0,5:0-23:0,5:0-23:0,6:0-22:0,2.5,IL,519 Belt Line Rd,1,38.6913172938,-89.9802248687,u'free',True,True,True,False,u7koIU81eSTmwryk1LMQsA,62234,5
Edmonton,Mary Brown's Famous Chicken & Taters,11:0-21:0,11:0-21:0,11:0-21:0,11:0-21:0,11:0-21:0,11:0-21:0,11:0-21:0,3,AB,4004 50 Street NW,1,53.4763431,-113.4175718,NA,NA,False,NA,True,boLOUdV5T1O5a1cWaClfDA,T6L 5N3,16
Indianapolis,Firehouse Subs,0:0-0:0,10:30-21:0,10:30-21:0,10:30-21:0,10:30-16:0,10:30-21:0,10:30-21:0,3.5,IN,4576 S Emerson Ave,1,39.7006312,-86.0830416,NA,NA,True,True,True,221gBXITHcO7Slr-1cXGNA,46203,39
Indianapolis,Burger King,5:30-0:30,5:30-0:30,5:30-0:30,5:30-0:30,5:30-20:0,10:30-0:30,5:30-0:30,2,IN,3650 S Keystone Ave,1,39.7123961,-86.1212182,'free',NA,True,True,True,nJpTi2x_0fXIJKRpY5uipg,46227,12
Indianapolis,Fast Burrito,0:0-0:0,7:30-15:0,7:30-15:0,7:30-15:0,7:30-15:0,NA,NA,4,IN,"111 Monument Cir, Ste 120",0,39.7695362807,-86.1563509941,'no',NA,True,True,True,5xdd5KXz1TXmRI47M-VO2A,46204,34
Carmel,KFC,0:0-0:0,11:0-19:0,11:0-19:0,11:0-19:0,11:0-19:0,11:0-19:0,11:0-19:0,1.5,IN,10575 N Michigan Rd,0,39.9391849,-86.2352616,'free',True,True,True,False,S_tu8JCeZsbpgJsqRFaSBg,46032,39
Salem,McDonald's,5:30-23:0,5:30-23:0,5:30-23:0,5:30-23:0,5:30-0:0,5:30-0:0,5:30-23:0,3,NJ,437 E Broadway,1,39.5627865943,-75.4580658674,u'free',True,True,True,True,Bc_Bw3dLw5S5hXM8UCFoqw,08079,6
St. Petersburg,Freshii,0:0-0:0,10:0-21:0,10:0-21:0,10:0-21:0,10:0-21:0,11:0-21:0,NA,4,FL,10328 Roosevelt Blvd N,1,27.8658246,-82.6428728,u'free',NA,True,True,True,6VQ1UhrwqRPkO1Bt4bbxlg,33716,98
Sparks,Jimboy's Tacos,8:0-21:0,8:0-21:0,8:0-21:0,8:0-21:0,8:0-22:0,8:0-22:0,8:0-18:0,3,NV,1370 Sullivan Ln,1,39.5447743,-119.7711718,NA,NA,False,True,True,0GsYSmfpsUpnTnxYbH045A,89431,44
Tucson,Quiznos,NA,NA,NA,NA,NA,NA,NA,2,AZ,"250 S Craycroft Rd, Ste 120",0,32.2186822,-110.8758823,NA,NA,True,True,NA,mV13U2bc3IEPnyaOyFxQGQ,85711,6
Tucson,Chipotle Mexican Grill,0:0-0:0,10:45-22:0,10:45-22:0,10:45-22:0,10:45-22:0,10:45-22:0,10:45-22:0,3,AZ,4774 E Grant Rd,1,32.250019,-110.8909246575,u'no',False,True,True,True,W7NxQw8UYFR0HLPrI08tvw,85712,76
Conshohocken,Dairy Queen,10:0-21:30,10:0-21:30,10:0-21:30,10:0-21:30,10:0-21:30,12:0-21:30,12:0-21:30,3.5,PA,1662 Butler Pike,1,40.0890105478,-75.2921665,u'no',True,True,True,True,lPPFfaAxzyj8R3dr9kasbg,19428,17
Nashville,Chick-fil-A,0:0-0:0,8:0-14:0,8:0-14:0,8:0-14:0,7:0-14:0,7:0-14:0,NA,3.5,TN,312 Rosa L Park,1,36.16385,-86.7849815,'no',True,False,True,True,s9tbO_-dZ8EqfL5EguAAbQ,37243,9
Antioch,Church's Chicken,10:0-23:0,10:0-23:0,10:0-23:0,10:0-23:0,10:0-23:0,10:0-23:0,10:0-23:0,2,TN,515 Bell Rd,1,36.0711212,-86.6370555,'no',True,None,True,True,2NwPXMmcVLVv7sq5zbCr1w,37013,8
Saint Charles,Pizza Hut,10:30-23:0,10:30-23:0,10:30-23:0,10:30-23:0,10:30-0:0,10:30-0:0,10:30-23:0,2,MO,1608 Country Club Place Dr.,1,38.769645,-90.5211396,NA,NA,True,True,NA,0VbQPOI8LqNpSmW4rcEMdQ,63303,14
Maple Glen,Dairy Queen,11:30-21:0,11:30-21:0,11:30-21:0,11:30-21:0,11:30-22:0,13:30-22:0,13:30-21:0,1.5,PA,637 E Welsh Rd,1,40.1796233536,-75.1819565892,'no',True,True,True,True,u8AetejFjM4g2vfwaNHx7w,19002,13
Nashville,KFC,10:0-22:0,10:0-22:0,10:0-22:0,10:0-22:0,10:0-22:0,10:0-22:0,10:0-22:0,1,TN,3035 Dickerson Rd,1,36.2273161494,-86.759173896,'free',True,True,True,NA,DOYbaX8DdHVEcxbG2Bt3Bw,37207,12
Indianapolis,Steak ’n Shake,10:0-0:0,10:0-0:0,10:0-0:0,10:0-0:0,10:0-0:0,10:0-0:0,10:0-0:0,2,IN,4501 S Emerson,1,39.7015643,-86.0819653,u'free',True,True,True,True,4s4KAGJgtpZn9cgtdWcOmw,46203,67
Tampa,Pizza Hut,11:0-0:0,11:0-0:0,11:0-0:0,11:0-0:0,11:0-1:0,11:0-1:0,11:0-0:0,1.5,FL,19010 Bruce B Downs Blvd,1,28.1443924,-82.3549453,u'free',NA,True,True,True,ttevmSPHu3dHUHFXBpVX9A,33647,30
Feasterville-Trevose,Andale Latino Grill,0:0-0:0,11:0-20:0,11:0-20:0,11:0-20:0,11:0-21:0,11:0-21:0,NA,4.5,PA,144 E Street Rd,1,40.1490783,-74.9981209224,u'free',False,True,True,True,zQPHrply2yeB1EGNnoS66A,19053,194
Edmonton,The Burger Joint,11:0-21:0,11:0-21:0,11:0-21:0,11:0-21:0,11:0-21:0,11:0-21:0,12:0-19:0,4,AB,9132   23 Avenue,1,53.452698,-113.4697591,u'free',False,False,NA,True,5nlpLTaOXgDQgKBHhAzm2g,T6N 1H9,87
Brentwood,QDOBA Mexican Eats,0:0-0:0,11:0-20:0,11:0-20:0,11:0-20:0,11:0-20:0,11:0-20:0,11:0-20:0,2.5,TN,"782 Old Hickory Blvd, Ste 120",0,36.0420149,-86.7799603,u'free',False,True,True,True,jf8AZyiMXd9CFxOg_fTb0g,37027,54
Philadelphia,Zio Pizza Palace & Grill,0:0-0:0,10:30-21:0,10:30-21:0,10:30-21:0,10:30-21:0,10:30-21:0,NA,4,PA,157 N 9th St,1,39.955065,-75.1541846,u'no',NA,True,True,False,YIdYc6tQIFRJPNIaPBupYQ,19107,43
Avon,McDonald's,4:0-0:0,4:0-0:0,4:0-0:0,4:0-0:0,0:0-0:0,0:0-0:0,4:0-0:0,2.5,IN,6856 E US Hwy 36,1,39.7632800176,-86.4024388685,u'free',True,True,True,True,xYmyJQiCnsMdxHpMQomxqQ,46123,22
Edmonton,Martini's Bar & Grill,NA,NA,NA,NA,NA,NA,NA,4,AB,"109 Street NW, Unit 9910",0,53.5376268,-113.5086751,NA,NA,NA,NA,NA,myW9WV0J5ERusoHqK51plg,T5K 1H5,6
St. Louis,Church's Chicken,10:0-22:0,10:0-22:0,10:0-22:0,10:0-22:0,10:0-22:0,10:0-22:0,10:0-22:0,2.5,MO,5720 S Lindbergh Blvd,1,38.5235704,-90.3515778,'no',False,True,True,True,-D_L4GHXJQvy2wv0RkrupA,63123,21
Paoli,Nick Filet,0:0-0:0,11:0-20:0,11:0-20:0,11:0-20:0,11:0-20:0,11:0-20:0,11:0-20:0,4.5,PA,111 E Lancaster Ave,1,40.0423884,-75.4779955,u'free',None,True,True,NA,DEeow7i2H5VfZ7vciM7ynA,19301,119
New Orleans,Subway,6:30-21:0,6:30-21:0,6:30-21:0,6:30-21:0,6:30-21:0,8:0-20:0,9:0-15:0,2.5,LA,"401 S Claiborne Ave, Ste B",0,29.9557975338,-90.0813517,NA,NA,None,True,False,WaP_umj3dFLzYicrOanRBA,70112,5
Tampa,Chick-fil-A,0:0-0:0,11:0-21:0,11:0-21:0,11:0-21:0,11:0-21:0,NA,NA,4.5,FL,401 W Kennedy Blvd,1,27.9459274,-82.465604,u'free',True,False,NA,NA,QQeRZIlaqfwRl_sIeKE_Eg,33606,8
Tucson,eegee's,0:0-0:0,9:30-22:0,9:30-22:0,9:30-22:0,9:30-18:0,9:30-22:0,9:30-22:0,3,AZ,"502 W Ajo Way, Ste 100",1,32.1785317,-110.9763018,'free',True,True,True,True,8qCbeHopky8xpGndJCcr7w,85713,25
Nashville,Jimmy John's,11:0-22:0,11:0-22:0,11:0-22:0,11:0-22:0,11:0-22:0,11:0-22:0,11:0-22:0,4.5,TN,15563 Old Hickory Blvd,1,36.0394307,-86.7423839,'no',True,True,True,True,J3sbnmR2lgGccg8rjYPzzA,37211,24
Hendersonville,Chick-fil-A,0:0-0:0,6:0-21:0,6:0-21:0,6:0-21:0,6:0-22:0,6:0-20:0,NA,3.5,TN,1033 Glenbrook Way,1,36.3320783,-86.6203347,u'free',True,True,True,True,blUgn4gm4pQtbPrx_sY9sw,37075,38
Reno,Chipotle Mexican Grill,0:0-0:0,10:45-22:0,10:45-22:0,10:45-22:0,10:45-22:0,10:45-22:0,10:45-22:0,3,NV,"6395 S Mccarran Blvd, Unit A",1,39.4774686077,-119.7931618635,'no',False,True,True,True,bKgyXSQUGA8IHGt8ne5NuA,89509,160
Sherwood Park,Mucho Burrito,9:0-21:0,9:0-21:0,9:0-21:0,9:0-21:0,9:0-21:0,9:0-21:0,9:0-21:0,2.5,AB,"222 Baseline Road, Suite 326",1,53.5420127788,-113.3176381004,u'free',NA,True,NA,True,KnV4SqaJfl44qOvhTGFBSQ,T8H 1S8,16
Hazelwood,Steak 'n Shake,0:0-0:0,0:0-0:0,0:0-0:0,0:0-0:0,0:0-0:0,0:0-0:0,0:0-0:0,1.5,MO,5534 St Louis Mills Blvd,0,38.7855249,-90.4160674,u'no',NA,False,True,True,OiNrqVY54pHo5bsxH9zmCg,63042,26
Indianapolis,Jimmy John's,11:0-22:0,11:0-22:0,11:0-22:0,11:0-22:0,11:0-22:0,11:0-22:0,11:0-22:0,4.5,IN,"10110 E Washington St, Ste C",1,39.7754997,-85.9880003,u'no',True,True,True,True,v_o9A1ifsdR1o1ZZqP-_CA,46229,12
Boise,Blimpie,9:0-21:0,9:0-21:0,9:0-21:0,9:0-21:0,10:0-20:0,10:0-19:0,9:0-21:0,3.5,ID,"9140 W Emerald St, Ste 950",1,43.611928,-116.2956348,NA,NA,True,True,False,x9ptZAtg1zWT6SGozxTvzg,83704,13
Collingswood,Philly Pretzel Factory,6:0-18:0,6:0-18:0,6:0-18:0,6:0-18:0,6:0-18:0,7:0-17:0,8:0-15:0,3.5,NJ,976 Haddon Ave,1,39.9141403,-75.0617798,'no',NA,True,True,False,_p4IFrOVtQLS7XsVJz4Vrg,08108,7
New Castle,Arby's,NA,NA,NA,NA,NA,NA,NA,3,DE,134 N Dupont Hwy,1,39.6707971,-75.5983625,NA,True,True,True,False,02kw1y-cUK5v_u5BaAQvjg,19720,9
Smyrna,Sonic Drive-In,0:0-0:0,6:0-22:0,6:0-22:0,6:0-20:0,8:0-23:0,9:0-20:0,8:0-22:0,3,TN,799 Team Blvd,1,35.9806894,-86.5625682,u'no',True,True,True,False,pMX5P_cDFqoo_-ZBUP-UOQ,37167,9
Philadelphia,Applebee's Grill + Bar,0:0-0:0,11:30-22:0,11:30-23:0,11:30-22:0,11:30-0:0,11:30-0:0,12:0-20:0,2.5,PA,2535-37 Castor Ave,1,39.993173,-75.092621,'free',False,True,True,True,QrIV69RPS4LTpIwPoL22_w,19134,55
Southport,Dairy Queen,NA,NA,NA,NA,NA,NA,NA,2.5,IN,1930 E Southport Rd,1,39.6652470161,-86.126124,NA,True,True,True,NA,cbsi6TU7ojJ_exZSD-zv9w,46227,11
Odessa,Wendy's,9:0-0:0,9:0-0:0,9:0-0:0,9:0-0:0,9:0-0:0,9:0-0:0,9:0-0:0,2.5,FL,12496 State Road 54,1,28.1906837953,-82.608692407,'free',True,True,True,True,ASXwPl_S3U9BJ6S6ZKnMvg,33556,13
Indianapolis,McDonald's,0:0-0:0,0:0-0:0,0:0-0:0,0:0-0:0,0:0-0:0,0:0-0:0,0:0-0:0,2.5,IN,3021 Southeastern Ave,1,39.7588882824,-86.1131304502,'free',True,True,True,NA,_RHKuqA3mCHBaNyoljJTrQ,46203,15
Indianapolis,Pizza Hut,11:0-21:0,11:0-21:0,11:0-21:0,11:0-21:0,11:0-22:0,11:0-22:0,11:0-21:0,1.5,IN,4902 W Washington St,1,39.7550743,-86.2435093,'no',NA,True,True,False,SMw8Fkpo4CGCTaSE2LfokA,46241,21
Newark,Wendy's,10:0-1:0,10:0-1:0,10:0-1:0,10:0-1:0,10:0-1:0,10:0-1:0,10:0-1:0,2,DE,90 University Plaza,1,39.66776,-75.6699693,u'no',NA,True,True,True,c4D851qxOujE5KTH8upXTA,19702,23
Royersford,Wawa,0:0-0:0,0:0-0:0,0:0-0:0,0:0-0:0,0:0-0:0,0:0-0:0,0:0-0:0,3.5,PA,451 West Ridge Pk,1,40.2326217929,-75.5276961887,NA,NA,True,True,NA,mhkPodUyu4xQe5QBXXlYdA,19468,5
Merchantville,Just Steaks,NA,NA,NA,NA,NA,NA,NA,4,NJ,Chapel Ave,0,39.9474849123,-75.048136053,NA,NA,True,NA,False,XPTtGr625iIHFOP6a6hxDA,08109,7
Pleasant View,Subway,8:30-20:0,8:30-21:0,8:30-21:0,8:30-21:0,8:30-21:0,9:0-21:0,9:0-19:0,4,TN,"6397A Highway 41A, Ste A",1,36.4097837,-87.0461768,'no',NA,False,True,True,BQdg19sukvw90QJ4tbY-BA,37146,7
Harahan,Quiznos,10:0-21:0,10:0-21:0,10:0-21:0,10:0-21:0,10:0-21:0,10:0-21:0,11:0-20:0,3,LA,"1130 S Clearview Pkwy Ste D, Ste D",1,29.9615253,-90.1850427,'no',NA,True,True,True,sLI--1z4vRxCmuL4U-Mr-g,70123,18
Pennsburg,Golden Bowl II Chinese Restaurant,NA,11:0-21:30,11:0-21:30,11:0-21:30,11:0-22:30,11:0-22:30,NA,4,PA,357 Main St,1,40.3988025,-75.497484,NA,NA,True,True,NA,e2HO_lbs0uP1-Vis3WKG7w,18073,9
Marana,McDonald's,0:0-0:0,0:0-0:0,0:0-0:0,0:0-0:0,0:0-0:0,0:0-0:0,0:0-0:0,2.5,AZ,3830 W Ina Rd,1,32.337956,-111.048389,u'free',True,True,True,True,jSP0rpPCYJ-FvW6yydY8Mg,85741,36
Ferguson,Super Wing,NA,NA,NA,NA,NA,NA,NA,3,MO,60 N Florissant Rd,1,38.7464638,-90.3053609,NA,NA,NA,NA,NA,4Ks_Ex6Luc5jbQsbkDBNug,63135,10
Nashville,Church's Chicken,6:0-22:0,6:0-22:0,6:0-22:0,6:0-22:0,6:0-22:0,6:0-22:0,6:0-22:0,2,TN,3127 Dickerson Rd,1,36.2324211,-86.7583322,NA,True,None,True,False,srBsGpHMxuu8KSQcw7Pf8w,37207,11
Oldsmar,Pollo Tropical,10:30-22:0,10:30-22:0,10:30-22:0,10:30-22:0,10:30-22:0,10:30-22:0,10:30-22:0,2.5,FL,3134 Tampa Rd,1,28.0516164,-82.6987286,u'free',True,True,True,True,STtVemevd30WoiZWn_taiQ,34677,84
Glen Mills,Five Guys Burgers and Fries,11:0-22:0,11:0-22:0,11:0-22:0,11:0-22:0,11:0-22:0,11:0-22:0,11:0-22:0,4.5,PA,1810 Wilmington Pike,0,39.86858,-75.545334,'free',NA,False,True,True,OjeSJYXaEqm3CkZsFf8xRA,19342,12
Nashville,Sonic Drive-In,0:0-0:0,7:0-22:0,7:0-22:0,6:0-22:0,6:0-22:0,9:0-22:0,8:0-22:0,2.5,TN,7679 Highway 70 S,1,36.0785444,-86.9531191,'no',True,True,True,True,HlSve6o5TAXbl4UDwCfcFw,37221,28
Drexel Hill,Dairy Queen,12:0-21:0,12:0-21:0,12:0-21:0,12:0-21:0,12:0-21:0,12:0-21:0,12:0-21:0,2.5,PA,710 N Lansdowne Ave,1,39.9584733,-75.2875789,'no',True,True,True,True,Vx8lGiwyVyxGM-IEwmZIxg,19026,24
Gretna,Wendy's,6:0-1:0,6:0-1:0,6:0-1:0,6:0-1:0,6:0-2:0,6:30-2:0,7:0-1:0,1.5,LA,1115 Stumpf Blvd.,1,29.9161121,-90.0485891,u'no',NA,True,True,True,xEo-_CApwhR5cmJ47DdGkw,70053,18
Plainfield,Arby's,NA,NA,NA,NA,NA,NA,NA,3.5,IN,6007 Gateway Dr,1,39.6739374,-86.3717608,NA,True,True,True,True,jcR-r84KHMwu_3AqdZZ7ew,46168,5
Indianapolis,Curries and Chutneys,11:0-21:0,11:0-21:0,11:0-21:0,11:0-21:0,11:0-21:0,11:0-21:0,11:0-21:0,3.5,IN,"8840 N Michigan Rd, Ste 105",0,39.9153190951,-86.2264280194,u'free',NA,False,True,True,N-tBrQMt2pc5JudffpDFmw,46268,34
Clayton,Subway,10:0-18:0,10:0-18:0,10:0-18:0,10:0-18:0,10:0-18:0,10:0-18:0,10:0-18:0,3.5,MO,"6451 Clayton Rd, Unit 103",0,38.6344037092,-90.3113129107,NA,NA,False,True,True,qBvsNlxtqy8hPxx1C7HuVA,63117,11
Philadelphia,Johnny Rockets,11:0-21:0,11:0-21:0,11:0-21:0,11:0-21:0,11:0-21:0,11:0-21:0,11:30-19:0,2.5,PA,443 South St,0,39.9419525,-75.1505858,u'no',False,True,True,True,FKrP06TDAKtxNG1vrRQcQQ,19147,110
St. Louis,Popeyes Louisiana Kitchen,10:0-22:0,10:0-22:0,10:0-22:0,10:0-22:0,10:0-0:0,10:0-0:0,10:0-22:0,2.5,MO,4103 First Missouri Credit Union Dr,1,38.485374,-90.351796,u'no',True,True,True,True,Kpw-RroI7wg54SFxRJXnsw,63129,34
Edmonton,Subway,7:0-23:0,7:0-23:0,7:0-23:0,7:0-12:0,7:0-2:0,9:0-2:0,9:0-23:0,2.5,AB,10652 82nd Avenue,1,53.518302,-113.505604,u'free',NA,True,NA,True,wu53SqfBAoJMQWILHlDe9w,T6E 2A6,5
Philadelphia,Trio Breakfast & Lunch,6:0-15:0,6:0-15:0,6:0-15:0,6:0-15:0,6:0-15:0,6:0-15:0,NA,3,PA,5548 Wayne Ave,1,40.03145806,-75.1788476379,'no',NA,True,True,True,R76nXl5oTep-d1ZGPZSimQ,19144,35
St. Louis,Lion's Choice,10:0-22:30,10:0-22:30,10:0-22:30,10:0-22:30,10:0-23:0,10:0-23:0,10:0-22:30,3.5,MO,11913 Manchester Rd,1,38.6018258,-90.4329569,u'no',True,True,True,True,0CeDwvLyRVgr-fq-DHk1sQ,63131,20
Collinsville,Firehouse Subs,0:0-0:0,10:30-21:0,10:30-21:0,10:30-21:0,10:30-16:0,10:30-21:0,10:30-21:0,4,IL,"1095 Belt Line Rd, Ste 100",1,38.6914715715,-89.9857521095,'no',False,True,True,True,W1-PG8MXkG5EgVGa7x6g3A,62234,9
New Orleans,Popeyes,NA,NA,NA,NA,NA,NA,NA,3,LA,4041 Magazine St,0,29.9212469,-90.0978321,u'no',NA,False,True,True,PHHd-Df4WieYCpfWrZsoNA,70115,7
Bordentown,Wendy's,0:0-0:0,0:0-0:0,0:0-0:0,0:0-0:0,0:0-0:0,0:0-0:0,0:0-0:0,2,NJ,2008 Route 206 South,1,40.11992,-74.707582,NA,NA,True,True,True,qyOUMa4Ol1lFnoZZ8lN_hA,08505,30
Glassboro,McDonald's,0:0-0:0,0:0-0:0,0:0-0:0,0:0-0:0,0:0-0:0,0:0-0:0,0:0-0:0,2.5,NJ,656 Delsea Dr,1,39.7170462699,-75.1128065586,u'free',True,True,True,True,WhzPmavp93LcoFVZSELUSw,08028,17
Tampa,Culver's,0:0-0:0,10:30-22:0,10:30-22:0,10:30-22:0,10:30-22:0,10:30-22:0,10:30-22:0,3.5,FL,15003 N Nebraska Ave,1,28.0885677338,-82.4509124756,'no',True,True,True,True,rQCTWNMzIZTfqWEAjxDpKQ,33613,140
Indianapolis,Five Guys,0:0-0:0,11:0-22:0,11:0-22:0,11:0-22:0,11:0-16:0,11:0-22:0,11:0-22:0,4,IN,3454 W 86th St,1,39.912389,-86.220624,'no',False,True,True,True,4puDEkq0E27Nrq5nQiVqzg,46268,70
Eagle,Subway,10:0-21:0,10:0-21:0,10:0-21:0,10:0-21:0,10:0-21:0,10:0-21:0,10:0-21:0,2,ID,182 E State St,1,43.6953834891,-116.3515304204,NA,NA,True,True,NA,vLdELbSYtwKVpkl4ownLEA,83616,11
Berlin Township,Arby's,NA,NA,NA,NA,NA,NA,NA,2,NJ,299 State Highway 73 North N,1,39.809109,-74.9303486,NA,True,True,True,False,KcsSlA3tyosXKzJVn6f3Ng,08091,7
Metairie,Subway,0:0-0:0,9:0-21:0,9:0-21:0,9:0-21:0,9:0-21:0,9:0-21:0,9:0-21:0,2,LA,"2222 Clearview Pkwy, Ste D",1,29.994921,-90.1834077599,NA,NA,True,True,False,W5jnx-8xydXZzG_vT5VxGQ,70001,7
Tampa,Five Guys Burgers and Fries,11:0-22:0,11:0-22:0,11:0-22:0,11:0-22:0,11:0-22:0,11:0-22:0,11:0-22:0,3.5,FL,"777 N Ashley Dr, Ste D2",0,27.9495909202,-82.4603057885,NA,NA,False,True,True,c0xlgkMW1iDu7gUDPs86hQ,33602,14
Tucson,El Pollo Loco,0:0-0:0,10:0-23:0,10:0-23:0,10:0-23:0,10:0-23:0,11:0-20:0,10:0-23:0,4,AZ,4755 S Landing Way,1,32.164434,-110.986674,NA,True,True,NA,NA,3p60SCbWgBMCw7UcREExMw,85714,12
Tampa,Taco Bell,7:0-2:0,7:0-2:0,7:0-2:0,7:0-2:0,7:0-2:0,7:0-2:0,7:0-2:0,2,FL,2016 North 50th Street,1,27.963492,-82.401384,None,True,True,True,True,dpGKdWz6y7ymYg3tpiPNDQ,33619,13
Tucson,McDonald's,5:0-23:0,5:0-23:0,5:0-23:0,5:0-23:0,5:0-0:0,5:0-0:0,5:0-23:0,2,AZ,5640 N Swan,1,32.3094714307,-110.8921464428,u'free',True,True,True,True,3w7NRntdQ9h0KwDsksIt5Q,85718,42
Avon,Fazoli's,10:30-22:0,10:30-22:0,10:30-22:0,10:30-22:0,10:30-23:0,10:30-23:0,10:30-22:0,3.5,IN,7930 E Us-36,1,39.763471,-86.382815,'no',True,True,True,True,hjd-dLRBTTFsPNJapCLFfg,46123,21
Des Peres,Chick-fil-A,0:0-0:0,6:30-22:0,6:30-22:0,6:30-22:0,6:30-22:0,6:30-16:0,NA,4.5,MO,11997 Manchester Rd,1,38.6024927,-90.4354988,'free',True,True,True,True,qWzBt1r0P_FjiinIAGFtoA,63131,78
New Orleans,Pei Wei,10:30-21:0,10:30-21:0,10:30-21:0,10:30-21:0,10:30-22:0,10:30-22:0,10:30-21:0,2,LA,301 N. Carrollton Ave.,0,29.9769533,-90.0992934,'no',NA,False,True,True,vng5PxNaiq3aoNn4HNNxEw,70119,26
Pennsauken,Burger King,6:0-22:0,6:0-22:0,6:0-22:0,6:0-22:0,6:0-20:0,9:0-21:0,6:0-22:0,1.5,NJ,1071 Route 73,1,39.98991,-75.025376,NA,NA,True,True,True,g-UYlWJj42SBzUfNwYl_Bw,08110,7
Philadelphia,Checkers,10:0-4:0,10:0-4:0,10:0-4:0,10:0-4:0,10:0-6:0,10:0-6:0,10:0-4:0,1.5,PA,232-50 W. Lehigh Avenue,1,39.9910878,-75.1357333,NA,True,True,NA,NA,Dfv6BewAcEokLLLpBXS2QA,19133,9
Saint Louis,Noodles & Company,0:0-0:0,10:30-21:0,10:30-21:0,10:30-21:0,10:30-21:0,10:30-21:0,10:30-20:0,4,MO,"18 S County Center Way, Ste 81",1,38.5071729953,-90.3304754822,u'free',NA,True,True,True,msHYY8zS_8D3_BJitdGdmA,63129,38
Goleta,Panda Express,10:0-21:30,10:0-21:30,10:0-21:30,10:0-21:30,10:0-22:0,10:0-22:0,10:30-21:30,2.5,CA,131 N. Fairview Ave.,1,34.441624,-119.832865,u'no',False,True,True,True,Ak_vHsHsYRP928VHVRL_tQ,93117,76
Seffner,McDonald's,0:0-0:0,0:0-0:0,0:0-0:0,0:0-0:0,0:0-0:0,0:0-0:0,0:0-0:0,2,FL,610 E Dr Martin Luther King Jr,1,27.981209,-82.285408,u'free',True,True,True,True,5OpUORgAc84h2Z4ctxKCiA,33584,35
Plainfield,Chick-fil-A,0:0-0:0,6:0-22:0,6:0-22:0,6:0-22:0,6:0-22:0,6:0-18:0,NA,4,IN,2687 E Main St,1,39.7184378,-86.3540924,'free',True,True,True,True,aaBlYQpHUuSYEv1EtWgxuQ,46168,49
Tucson,Wienerschnitzel,9:0-22:0,9:0-22:0,9:0-22:0,9:0-22:0,9:0-23:0,9:0-23:0,9:0-22:0,3,AZ,6346 North Oracle Rd,1,32.3219813,-110.9740882,'no',True,True,True,True,boIphU_TlxlMJHfFrAM03g,85704,28
Saint Louis,Jack in the Box,0:0-0:0,0:0-0:0,0:0-0:0,0:0-0:0,0:0-0:0,0:0-0:0,0:0-0:0,2,MO,2163 S Grand Ave,1,38.611592228,-90.2408085,NA,True,True,True,True,dGF7wLT0zN4-lVaf5LIG6Q,63104,26
Philadelphia,Potato Corner,NA,NA,NA,NA,NA,NA,NA,4,PA,"1001 Market St, Ste K07",1,39.9521727155,-75.1555366884,NA,NA,None,NA,NA,97BnuM-u5MwG71m_s9p4Iw,19107,6
Philadelphia,Big Geez Chicken Shack ,NA,12:0-21:0,12:0-21:0,12:0-21:0,12:0-22:0,12:0-22:0,12:0-20:0,3,PA,5148 Locust St,1,39.9556563,-75.2255038,NA,NA,None,True,NA,70STxTke5G_Y5e-W9xcGdw,19139,19
Antioch,Long John Silver's,10:30-22:0,10:30-22:0,10:30-22:0,10:30-22:0,10:30-23:0,10:30-23:0,10:30-22:0,1,TN,5321 Hickory Hollow Ln,0,36.0483524,-86.6531771,NA,NA,NA,NA,NA,qjDK2MXfOXQgNYqcApFObg,37013,15
Reno,Jack in the Box,6:0-21:0,6:0-21:0,6:0-21:0,6:0-21:0,6:0-21:0,6:0-21:0,6:0-21:0,2,NV,10450 N Mccarran Blvd,1,39.5337906,-119.8640574,NA,True,True,True,True,i8d8SAkHHi1t9qvu6BLvVQ,89503,43
Moorestown,Pei Wei,11:0-21:0,11:0-21:0,11:0-21:0,11:0-21:0,11:0-22:0,11:0-22:0,11:0-21:0,3.5,NJ,"400 Rte 38, Ste 8120",0,39.946225,-74.961052,u'no',False,False,True,True,fEFCglnS2V7MzqoxBoJVWA,08057,75
New Port Richey,Taco Bell,10:30-23:0,10:30-23:0,10:30-23:0,10:30-23:0,10:30-23:0,10:0-0:0,10:0-23:0,2,FL,8242 Little Road,0,28.276969,-82.674113,'free',True,True,True,True,sMrUg8UgpvsV0qEzVScGpw,34654,21
Pleasant View,KFC,10:0-21:0,10:0-21:0,10:0-22:0,10:0-22:0,10:0-22:0,10:0-22:0,10:0-22:0,1.5,TN,111 Ren Mar Dr,1,36.3972252169,-87.030103265,'no',True,False,True,True,V3YH4QI_OQmUgduumtGyfg,37146,17
Brentwood,McDonald's,5:0-23:0,5:0-23:0,5:0-23:0,5:0-23:0,5:0-23:0,5:0-23:0,6:0-23:0,2,TN,109 E Park Dr,1,36.0353716033,-86.7917333543,'free',True,True,True,True,9SVub2VmfgMmyqe3KQh3bA,37027,27
Hazelwood,Jack in the Box,0:0-0:0,0:0-0:0,0:0-0:0,0:0-0:0,0:0-0:0,0:0-0:0,0:0-0:0,1.5,MO,6100 Howdershell Rd,1,38.7823301887,-90.3827002645,NA,True,True,True,True,ro3mmznC6MEhzEw4osI-ww,63042,18
Tucson,QuikTrip,0:0-0:0,0:0-0:0,0:0-0:0,0:0-0:0,0:0-0:0,0:0-0:0,0:0-0:0,4,AZ,6385 E Golf Links rd,1,32.1924496,-110.8564794,NA,NA,False,True,NA,JQsDoGIv4XBtypoMS0m2cg,85730,10
Reno,Firehouse Subs,10:0-21:0,10:0-21:0,10:0-21:0,10:0-21:0,10:0-21:0,10:0-21:0,10:0-21:0,4.5,NV,"199 Damonte Ranch Pkwy, Unit K",1,39.4211118,-119.755588,NA,NA,True,NA,NA,jAP9s74Wl3EjKk2SJ93CgQ,89521,23
Doylestown,Doc Bakers Farmulations,8:0-18:0,8:0-18:0,8:0-18:0,8:0-18:0,8:0-18:0,8:0-18:0,8:0-18:0,4,PA,22 N Main St,0,40.3104794,-75.1308827,'free',False,False,True,True,Fp2Dk2__WHq7SK1Ah6oo0Q,18901,40
Indianapolis,White Castle,5:0-5:0,5:0-5:0,5:0-5:0,5:0-5:0,5:0-5:0,5:0-5:0,5:0-5:0,2.5,IN,8740 N Michigan Rd,1,39.9137492704,-86.2243404318,u'no',True,True,True,True,ejEfdVaby6WbpB1XXlq2PQ,46268,26
Newark,Zaikka Indian Grill,11:0-21:0,11:0-21:0,11:0-21:0,11:0-21:0,11:0-21:0,11:0-21:0,11:0-19:0,3.5,DE,1253 Churchmans Rd,0,39.6900318,-75.6627091,u'free',NA,False,True,True,LSxmfbgcZLdQ5ai2vf2nmA,19713,69
Boise,Carl's Jr,6:0-23:0,6:0-23:0,6:0-23:0,6:0-23:0,6:0-23:0,6:0-22:0,7:0-22:0,1.5,ID,493 N Milwaukee St,1,43.6092795,-116.2852851587,NA,True,True,True,True,X9WTFeGEUjOQ9U6XZ7FqHg,83704,22
Indianapolis,Rally's,10:0-2:0,10:0-2:0,10:0-2:0,10:0-3:0,10:0-4:0,10:0-4:0,10:0-2:0,2,IN,3102 E. Washington Street,1,39.7690239,-86.1114688,NA,NA,True,True,False,GdZMjP9OkwvclMk8tbQuwA,46201,7
Essington,Denny's,6:0-0:0,6:0-0:0,6:0-0:0,6:0-0:0,6:0-0:0,6:0-0:0,6:0-0:0,2.5,PA,47 Industrial Hwy,1,39.8676664401,-75.3052894586,'free',False,True,True,True,Ax5taPtXMnxhUJjFUQHF4A,19029,86
Tucson,Little Caesars Pizza,10:30-22:0,10:30-22:0,10:30-22:0,10:30-22:0,10:30-23:0,10:30-23:0,10:30-22:0,1.5,AZ,2175 E Irvington Rd,1,32.1637987399,-110.9397400024,'no',NA,True,True,False,P7qY1cGAPgFzaAk3cSBphw,85714,19
Valley Park,McDonald's,0:0-0:0,0:0-0:0,0:0-0:0,0:0-0:0,0:0-0:0,0:0-0:0,0:0-0:0,1.5,MO,13600 Big Bend Rd,1,38.566874,-90.476937,u'free',True,True,True,True,c4x06huNhVp04VI_MUiQsw,63088,42
Saint Louis,Lee's Famous Recipe,NA,NA,NA,NA,NA,NA,NA,3.5,MO,2629 S Jefferson Ave,1,38.6043002,-90.2234813,'no',NA,False,True,True,EwqQAb-UUN_BVrvnwr3hpg,63118,20
Carmel,Tropical Smoothie Cafe,0:0-0:0,7:0-20:0,7:0-20:0,7:0-20:0,7:0-20:0,8:0-20:0,11:0-19:0,4,IN,365 W 116th St,1,39.9555398,-86.1631419,NA,NA,True,True,NA,HbWj_5vgF_IwGU4ru-vSyA,46032,52
St. Louis,Rally's,10:0-4:0,10:0-4:0,10:0-4:0,10:0-4:0,10:0-4:0,10:0-4:0,10:0-4:0,1.5,MO,305 N. Vandeventer,1,38.6392723,-90.2410881,NA,NA,True,True,True,yEh8qZoW34uoA9xKiXnCow,63108,29
Tampa,Burger King,5:0-0:0,5:0-0:0,5:0-0:0,5:0-0:0,0:0-0:0,0:0-0:0,5:0-0:0,1.5,FL,14999 N Florida Ave,1,28.087599,-82.4590705,u'no',NA,True,True,True,baHb5T01_MnnhQFHRCR0fg,33613,17
St. Louis,Steak ’n Shake,6:0-22:0,6:0-22:0,6:0-22:0,6:0-22:0,6:0-22:0,6:0-22:0,6:0-22:0,1.5,MO,7350 Gravois,0,38.5638110063,-90.2943261751,u'free',NA,False,True,True,Mwo6_kET9zmL4WItyeMj9w,63116,74
Philadelphia,Arbys Roast Beef,NA,NA,NA,NA,NA,NA,NA,2.5,PA,2560 Aramingo Ave,1,39.9788169932,-75.1191148148,NA,True,True,True,False,gHMN4jk8kjG50CH-IRY2Dw,19125,19
Broomall,QDOBA Mexican Eats,10:30-22:0,10:30-22:0,10:30-22:0,10:30-22:0,11:0-20:0,10:30-23:0,10:30-22:0,3.5,PA,1991 Sproul Rd,1,39.959576,-75.3550187,NA,NA,True,True,True,VMzqIWdoSNHYWXxLk3C-RQ,19008,22
Stratford,Checkers,10:0-1:0,10:0-1:0,10:0-1:0,10:0-1:0,10:0-2:0,10:0-2:0,10:0-1:0,2.5,NJ,2 S White Horse Pike,0,39.8331011241,-75.0054095685,'no',True,False,True,False,C0j0V6dtOK2Q0OZLTs-Y3g,08084,15
Philadelphia,Subway,9:0-22:0,9:0-22:0,9:0-22:0,9:0-22:0,9:0-22:0,9:0-22:0,9:0-22:0,1.5,PA,1936 Liacouras Walk,1,39.9824443591,-75.1559102741,u'no',NA,True,True,NA,ldTsXru9q1V-aC6iM7BH-w,19122,6
Reno,Subway,7:0-21:30,7:0-21:30,7:0-21:30,7:0-21:30,7:0-21:30,8:0-21:30,9:0-21:0,3,NV,1585 S Virginia St,0,39.5087161,-119.8046874,u'free',NA,True,True,True,NbFhqam3fMjlxutxn7G1bQ,89502,6
Twin Oaks,Pizza Hut,11:0-22:0,11:0-22:0,11:0-22:0,11:0-22:0,11:0-0:0,11:0-0:0,11:0-22:0,2,MO,1358 Big Bend Rd,1,38.5664392314,-90.4972509147,NA,NA,True,True,False,ubDZpV0ratogOIy3L6HZgg,63021,8
Nashville,Auntie Anne's Pretzels,NA,NA,NA,NA,NA,NA,NA,2,TN,2126 Abbott Martin Rd,1,36.108567,-86.813376,NA,NA,False,True,NA,UjxQP7wWh8P3mblDM4lrTg,37215,6
Tucson,McDonald's,5:0-0:0,5:0-0:0,5:0-0:0,5:0-0:0,0:0-0:0,0:0-0:0,5:0-0:0,1.5,AZ,4960 W Ajo Hwy,1,32.171987,-111.071107,u'free',True,True,True,True,eqLgpNj0DnRpMj63IfGVeA,85757,28
Nashville,Subway Restaurants,7:0-23:0,7:0-23:0,7:0-23:0,7:0-23:0,7:0-23:0,8:0-23:0,9:0-23:0,2.5,TN,400 21st Ave S,1,36.1471283903,-86.7990377411,'free',NA,True,True,True,cdPjDZubPvok0VHv654Tvw,37203,16
Philadelphia,Burger King,10:0-5:0,10:0-5:0,10:0-5:0,10:0-5:0,10:0-17:0,10:0-17:0,NA,2,PA,90 Franklin Mills Blvd,1,40.0879342598,-74.9671626596,'free',NA,True,True,True,a93-oNkJsUWOCiHu5O9xLA,19154,19
Franklin,Grabbagreen - Franklin,7:30-18:0,7:30-18:0,7:30-18:0,7:30-18:0,7:30-18:0,10:30-18:0,10:30-18:0,4,TN,"2000 Meridian Blvd, Ste 120",0,35.9516098,-86.807833,'free',False,True,True,False,1lXdhiMNyUxtBlEAeRYCvQ,37067,73
New Orleans,Arby's,NA,NA,NA,NA,NA,NA,NA,2.5,LA,509 Canal St,0,29.9521203,-90.0671077,u'no',NA,False,True,True,bn4N0bxa-u-kBaKLwU893w,70130,38
Nashville,Chick-fil-A,0:0-0:0,6:0-21:0,6:0-21:0,6:0-21:0,6:0-22:0,6:30-16:0,NA,3.5,TN,6500 Charlotte Pike,1,36.14023653,-86.87969636,u'free',True,True,True,True,jOOOrH5n2ijnsZKxzPSAiw,37209,112
Philadelphia,Burger King,6:0-0:0,6:0-0:0,6:0-0:0,6:0-2:0,6:0-2:0,6:0-2:0,7:0-0:0,2,PA,15 S 8th St,1,39.949709197,-75.1549760369,u'no',NA,True,True,True,LACylKxImNI29DKUQpWuHw,19106,32
Trevose,Wendy's,NA,NA,NA,NA,NA,NA,NA,1.5,PA,3413 Horizon Blvd,1,40.135572,-74.965661,'free',True,True,True,True,6jwmTTcGO5oy2JSa96WLzw,19053,17
Fairview Heights,Chick-fil-A,0:0-0:0,10:30-18:0,6:0-22:0,6:0-22:0,6:0-22:0,6:0-16:0,6:30-20:0,4.5,IL,6203 N Illinois St,1,38.5899403,-89.985405,'free',True,True,True,True,qXZooaeOrKHCrLHK99VHwg,62208,78
Wilmington,Subway,NA,NA,NA,NA,NA,NA,NA,2.5,DE,1012 Wilmington Ave,0,39.7424677,-75.5762368,u'no',NA,False,True,False,XF86J5bJKkmueBL-PmPbcg,19805,7
Avondale,McDonald's,5:0-0:0,5:0-0:0,5:0-0:0,5:0-0:0,5:0-0:0,5:0-0:0,5:0-0:0,1,LA,2951 Hwy 90,1,29.9091675264,-90.2043836564,NA,True,True,NA,True,wPwxfwrSNMmqxEHMzGG1Jw,70094,10
New Orleans,Popeyes Louisiana Kitchen,10:0-0:0,10:0-0:0,10:0-0:0,10:0-0:0,10:0-1:0,10:0-1:0,10:0-0:0,2.5,LA,5757 Read Blvd,1,30.036139,-89.9746985,u'no',True,True,True,True,F_24wAKBIVdXEZY5ilNH9w,70127,24
Maryville,Subway,9:0-19:0,9:0-19:0,9:0-18:0,9:0-19:0,9:0-19:0,9:0-19:0,9:0-19:0,2.5,IL,"Shepard Plz, Ste 2",1,38.736827539,-89.9562028118,NA,NA,True,True,True,6Kc2FhLppRhWBXDKxjxj2A,62062,10
Plainfield,Five Guys,0:0-0:0,11:0-22:0,11:0-22:0,11:0-22:0,11:0-16:0,11:0-22:0,11:0-22:0,2.5,IN,2663 E Main St,1,39.7174023356,-86.3567235393,NA,NA,True,True,NA,aQ5DSmc2f2XPB5Iug8CBhg,46168,6
Sicklerville,Five Guys,0:0-0:0,11:0-22:0,11:0-22:0,11:0-22:0,11:0-16:0,11:0-22:0,11:0-22:0,3.5,NJ,493 Berlin Cross Keys Rd,1,39.74586,-74.993714,'no',NA,True,True,True,JJdE903Q0UhJyDcsyv62Ng,08081,36
Edmonton,Uncle Ed's Restaurant,0:0-0:0,8:30-19:0,8:30-19:0,8:30-19:0,8:30-19:0,8:30-19:0,NA,4,AB,4824 118 Avenue NW,1,53.570634,-113.416455,u'no',NA,True,NA,True,P48O-s2OOVq8UBtskQ90tQ,T5W 1B4,60
Willow Grove,Chick-fil-A,0:0-0:0,11:0-20:0,11:0-20:0,11:0-20:0,6:0-21:0,10:0-16:0,NA,4.5,PA,"2500 W Moreland Rd, Ste 3066",1,40.140274,-75.123094,u'free',True,True,True,True,bzdETZxh4oL3QChnN2DCFg,19090,16
Bridgeton,Wendy's,10:0-0:0,10:0-0:0,10:0-0:0,10:0-0:0,10:0-1:0,10:0-1:0,10:0-0:0,2,MO,11961 Paul Mayer,1,38.7469827,-90.4221269,NA,NA,True,True,True,51yV__LuSawlYDNSYpvdfA,63044,15
Antioch,Popeyes Louisiana Kitchen,9:0-22:0,9:0-22:0,9:0-22:0,9:0-22:0,9:0-22:0,9:0-22:0,9:0-22:0,2,TN,13011 Old Hickory Blvd,1,36.0149,-86.618361,NA,NA,True,True,True,G6LoNkTHopeCB8mg1mG8Rw,37013,19
Morrisville,Dairy Queen,11:0-21:0,11:0-21:0,11:0-21:0,11:0-21:0,11:0-21:0,11:0-21:0,11:0-21:0,4.5,PA,55 S Delmorr Ave,1,40.2089477553,-74.7723143,NA,True,True,True,True,Ma1-ObBgnDiC1IHS3xZ-hw,19067,5
New Port Richey,Burger King,7:0-22:30,7:0-22:30,7:0-22:30,7:0-22:30,7:0-19:0,10:0-21:0,7:0-22:30,2,FL,6319 US Hwy 19,1,28.2503723,-82.7283709,'free',NA,True,True,True,YqLNSVl9wwmXw6NKEqjsRw,34652,13
St. Charles,McDonald's,6:0-0:0,5:0-0:0,5:0-0:0,5:0-0:0,5:0-0:0,5:0-0:0,5:0-0:0,1.5,MO,1890 Zumbehl Rd,1,38.779078,-90.530077,u'free',True,True,True,False,2KjXarF28RIn7_APW1b7qA,63303,32
Troy,Subway,10:0-19:0,10:0-19:0,10:0-19:0,10:0-19:0,10:0-19:0,10:0-19:0,10:0-19:0,1.5,IL,525 Troy Plz,1,38.7333664524,-89.898355541,NA,NA,False,True,NA,yheGRZWHC-RJoKlqepj0hw,62294,11
Metairie,Wendy's,6:30-23:0,6:30-23:0,6:30-23:0,NA,6:30-0:0,6:30-0:0,6:30-23:0,1.5,LA,300 Veterans Memorial Blvd.,1,30.0000282,-90.126044,u'free',NA,True,True,True,vrx3ZpbsX9W7C5UFWOghtw,70005,35
Brentwood,Chipotle Mexican Grill,0:0-0:0,10:45-22:0,10:45-22:0,10:45-22:0,10:45-22:0,10:45-22:0,10:45-22:0,2.5,TN,269 Franklin Rd,1,36.029752686,-86.7914768994,'no',NA,True,True,True,c4IkL2K64JeFC7kcnbupsw,37027,77
West Deptford,Popeyes Louisiana Kitchen,10:30-22:0,10:30-22:0,10:30-22:0,10:30-23:0,10:30-23:0,10:30-22:0,10:30-22:0,2.5,NJ,719 Mantua Pike,1,39.823611,-75.161442,NA,NA,True,True,True,CNPAscy_9loqn3beWBupkw,08096,12
Godfrey,Arby's,NA,NA,NA,NA,NA,NA,NA,1.5,IL,5509 Godfrey Rd,1,38.9463706,-90.190287,'no',True,True,True,True,eM64YFx3lLTDgJYqn4YEpA,62035,6
New Port Richey,Dairy Queen Grill & Chill,11:0-22:0,11:0-22:0,11:0-22:0,11:0-22:0,11:0-22:0,11:0-22:0,11:0-22:0,2,FL,6405 State Road 54,1,28.2175088657,-82.7090111616,u'free',True,True,True,True,3-3SDBwFGYuU0VZWmA8RfQ,34653,28
Tampa,Taco Bell,10:0-21:0,10:0-21:0,10:0-21:0,10:0-21:0,10:0-21:0,10:0-21:0,11:0-17:0,3,FL,8021 Citrus Park Town Ctr,0,28.068941,-82.5737,NA,NA,NA,NA,NA,fXsdsGnTntaRWbfUxP3wXw,33625,5
St Louis Downtown,QuikTrip,0:0-0:0,0:0-0:0,0:0-0:0,0:0-0:0,0:0-0:0,0:0-0:0,0:0-0:0,4,MO,3291 S Kingshighway Blvd,1,38.6004971,-90.2705598,NA,NA,False,True,NA,d26K8f4sHEl8Pvct59OISQ,63139,13
New Orleans,Pizza Hut,11:0-20:0,11:0-20:0,11:0-20:0,11:0-20:0,11:0-20:0,11:0-20:0,11:0-20:0,1.5,LA,"301 N Carrollton Ave, Ste C-4",1,29.9768214212,-90.0991417935,u'no',NA,True,True,False,ew5TyXOlyCpCRptye1LdxA,70119,39
Nashville,La Michoacan,10:0-21:0,10:0-21:0,10:0-21:0,10:0-21:0,10:0-22:0,10:0-22:0,10:0-21:0,5,TN,3923 Lebanon Pike,0,36.1945904242,-86.6218810503,NA,NA,False,True,True,soFyg4gZqg0YzrDCLk6Jxw,37076,14
Brandon,Pollo Tropical,10:30-23:0,10:30-23:0,10:30-23:0,10:30-23:0,10:30-23:0,10:30-23:0,10:30-23:0,2,FL,828 Providence Rd,1,27.9250686,-82.3170951,u'free',True,True,True,True,2esINQvNBShE7c6RwGzE9w,33511,70
Tucson,Wendy's,10:0-0:0,10:0-0:0,10:0-0:0,10:0-0:0,10:0-1:0,10:0-1:0,10:0-0:0,2,AZ,3171 E Valencia,1,32.1346244,-110.9248177,NA,NA,True,True,True,Jx8vvRXwfCjkiaofXuNe8g,85706,18
West Chester,Taco Bell,10:30-0:0,10:30-0:0,10:30-0:0,10:30-0:0,10:30-0:0,10:30-0:0,10:30-23:0,1.5,PA,519 E Market St,1,39.96346,-75.59603,NA,True,True,True,NA,6UzLtXTdLJKNHmn70J29Ig,19382,32
King of Prussia,Jimmy John's,11:0-21:0,11:0-21:0,11:0-21:0,11:0-21:0,11:0-21:0,11:0-21:0,11:0-21:0,3.5,PA,340 W Dekalb Pike,0,40.092678,-75.3721422,u'no',True,True,True,True,02jZC7oX0SbWXVFboNwFGA,19406,38
Springfield,Taco Bell,7:0-2:0,7:0-2:0,7:0-2:0,7:0-2:0,7:0-3:0,7:0-3:0,7:0-2:0,1,TN,3497 Tom Austin Hwy.,1,36.488811,-86.881204,NA,True,True,True,True,krZ5_FIbqoJ0_viFpAPrDQ,37172,19
Tampa,Pizza Hut,NA,NA,NA,NA,NA,NA,NA,2.5,FL,5263 Ehrlich Rd,1,28.0858899,-82.5393663,NA,NA,True,True,False,-HWc5-NQLKBIIlBcDMfKCw,33624,19
Smyrna,Subway,0:0-0:0,8:0-22:0,8:0-22:0,8:0-22:0,8:0-22:0,9:0-21:0,9:0-21:0,3,TN,931 Sgt Asbury Hawn Way,1,35.9681361,-86.4953312,NA,NA,True,NA,NA,NFdlTTZrmXejfKyz7v5T3Q,37027,5
Greenwood,McDonald's,5:0-23:0,5:0-23:0,5:0-23:0,5:0-23:0,5:0-0:0,5:0-0:0,5:0-23:0,2.5,IN,2556 S Sr 135,1,39.5785806247,-86.1595568061,'free',True,True,True,False,e8bOuDRCsHOb5IqQrapT2Q,46143,13
Tampa,O.E. Market,11:0-17:0,11:0-17:0,11:0-17:0,11:0-17:0,11:0-17:0,11:0-17:0,11:0-17:0,3.5,FL,125 S Hyde Park Ave,0,27.9445699,-82.4638901,u'no',NA,True,True,False,sgKIKeFXSUHLeOcX1q8nQg,33606,10
Exton,Chipotle Mexican Grill,0:0-0:0,10:45-22:0,10:45-22:0,10:45-22:0,10:45-22:0,10:45-22:0,10:45-22:0,2,PA,241 N Pottstown Pike,1,40.0326690472,-75.6303525514,'no',False,True,True,True,tNOLXgYTykXmLaAZnvo1vg,19341,115
Fenton,White Castle,5:0-5:0,5:0-5:0,5:0-5:0,5:0-5:0,5:0-5:0,5:0-5:0,5:0-5:0,3,MO,1789 Bowles Ave,1,38.5410837117,-90.4740523725,NA,NA,True,True,True,cAYjOJKEmIoA7C4cC4ob4g,63026,23
St. Louis,McDonald's,5:0-1:0,5:0-1:0,5:0-1:0,5:0-1:0,5:0-1:0,5:0-1:0,5:0-1:0,1,MO,5537 Telegraph Rd,1,38.4715782555,-90.3054399043,u'free',True,True,True,True,3RRvxFR5V_p4NicI7DGVEA,63129,28
Boise,Bad Boy Burgers 2,7:30-21:0,7:30-21:0,7:30-22:0,7:30-22:0,7:30-22:0,7:30-22:0,8:30-21:0,3,ID,7000 W Fairview Ave,1,43.6195442,-116.2689627,u'no',NA,True,True,True,vJeHUxMZEXiET3ucrts0dA,83704,68
Goodlettsville,Taco Bell,7:0-0:0,7:0-21:0,7:0-0:0,7:0-0:0,7:0-0:0,7:0-0:0,7:0-0:0,2,TN,320 Long Hollow Pike,1,36.3266860689,-86.7006304202,u'free',True,True,True,False,p9atmpwTa7rC3UpVFmy3cQ,37072,20
Tampa,McDonald's,5:0-0:0,5:0-0:0,5:0-0:0,5:0-0:0,5:0-1:0,5:0-1:0,6:0-0:0,2.5,FL,926 W Fletcher Ave,1,28.0685486684,-82.4686838928,'free',True,True,True,True,V2hqC0b1d6Yn0JMGg4DCPA,33612,20
Sunset Hills,Jimmy John's,11:0-21:0,11:0-21:0,11:0-21:0,11:0-21:0,11:0-21:0,11:0-21:0,11:0-21:0,2.5,MO,"3860 S Lindbergh Blvd, Ste 105",0,38.5480836,-90.4040511,u'no',True,True,True,True,0wHR5cCTKdCmimhp02cQFA,63127,26
Clearwater,Pizza Hut,12:0-20:0,12:0-20:0,12:0-20:0,12:0-20:0,12:0-20:0,12:0-20:0,12:0-20:0,2.5,FL,"407 S Belcher Rd, Ste 4",1,27.9617046827,-82.745481,NA,NA,True,NA,True,C1gDJxB5bwsK8AWWJeP_Lg,33765,13
Chesterfield,Pizza Hut,12:0-19:0,12:0-19:0,12:0-19:0,12:0-19:0,12:0-20:0,12:0-20:0,12:0-19:0,3.5,MO,126 4 Seasons Shopping Ctr,1,38.679054587,-90.5034586787,NA,NA,True,True,True,9KISuZD0pBbi_Qc9i3DdRw,63017,14
Tampa,Burger King,5:0-0:0,5:0-0:0,5:0-0:0,5:0-0:0,0:0-0:0,0:0-0:0,5:0-0:0,2,FL,2965 N Dale Mabry Hwy,1,27.9664246046,-82.5048854889,NA,True,True,True,True,8fGCwxodHba1u8p3rfv8bw,33607,28
Goleta,KFC,10:0-21:30,10:0-21:30,10:0-21:30,10:0-21:30,10:0-21:30,10:0-21:30,10:0-21:30,3,CA,5697 Calle Real,1,34.4407835012,-119.8234120988,'no',True,True,True,True,i2yCrMQx5soH0jMFG32vxQ,93117,32
Largo,Long John Silver's,10:30-22:0,10:30-22:0,10:30-22:0,10:30-22:0,10:30-23:0,10:30-23:0,10:30-22:0,2.5,FL,351 Missouri Ave N,0,27.9198368,-82.7881131,'no',NA,True,True,True,nEL3oEQEhOAI1o4Bzgkbnw,33770,9
